Plant.Id	Plant.Name	State.ID	Latitude	Longitude	Fuel 	Prime.Mover	Cooling.System	CHP 	Generation.(MWh) 	Consolidated.Description	Area.ID
50392	Eielson AFB Central Heat & Power Plant	AK	64.67141	-147.075988	CL	ST		Y	68209	1	1
50308	Utility Plants Section	AK	64.825601	-147.648627	CL	ST		Y	71042.994	1	1
79	Aurora Energy LLC Chena	AK	64.847743	-147.735063	CL	ST		Y	191062	1	1
56	Charles R Lowman	AL	31.488019	-87.910747	CL	ST	MULTI	N	1876861.007	1	2
10	Greene County	AL	32.6017	-87.7811	CL	ST	ON	N	2756619.032	1	2
47	Colbert	AL	34.7439	-87.8486	CL	ST	ON	N	3588287.031	1	2
50	Widows Creek	AL	34.883022	-85.755253	CL	ST	ON	N	3705847.958	1	2
8	Gorgas	AL	33.644344	-87.196486	CL	ST	ON	N	5247433.018	1	2
26	E C Gaston	AL	33.244211	-86.458056	CL	ST	ON	N	6432608.962	1	2
6002	James H Miller Jr	AL	33.6319	-87.0597	CL	ST	RTND	N	18478397.24	1	2
6138	Flint Creek	AR	36.2561	-94.5241	CL	ST	RC	N	3635660.007	1	3
56456	Plum Point Energy Station	AR	35.6644	-89.9489	CL	ST	RTID	N	3626618.97	1	3
56564	John W Turk Jr Power Plant	AR	33.649722	-93.811944	CL	ST	RTID	N	4422640.975	1	3
6009	White Bluff	AR	34.4228	-92.1406	CL	ST	RTND	N	10526995.36	1	3
6641	Independence Steam Electric Station	AR	35.678442	-91.408761	CL	ST	RTND	N	10990483.71	1	3
113	Cholla	AZ	34.9394	-110.3033	CL	ST	MULTI	N	6630104.983	1	4
160	Apache Station	AZ	32.0603	-109.8931	CL	ST	RTID	N	2620963.018	1	4
6177	Coronado	AZ	34.5789	-109.2708	CL	ST	RTID	N	5419903.049	1	4
8223	Springerville	AZ	34.3186	-109.1639	CL	ST	RTID	N	10534766.78	1	4
4941	Navajo	AZ	36.9047	-111.3886	CL	ST	RTID	N	17297076.44	1	4
10002	ACE Cogeneration Facility	CA	35.765767	-117.383584	CL	ST	RTID	Y	331215	1	5
470	Comanche (CO)	CO	38.2081	-104.5747	CL	ST	FDHB	N	8289783.03	1	6
477	Valmont	CO	40.0195	-105.202	CL	ST	RC	N	1047943.048	1	6
6761	Rawhide	CO	40.860905	-105.021207	CL	ST	RC	N	2167444.966	1	6
527	Nucla	CO	38.2383	-108.5069	CL	ST	RTID	N	417583.997	1	6
492	Martin Drake	CO	38.824444	-104.833333	CL	ST	RTID	N	1169606.02	1	6
8219	Ray D Nixon	CO	38.633451	-104.70577	CL	ST	RTID	N	1328386.003	1	6
6248	Pawnee	CO	40.2217	-103.6803	CL	ST	RTID	N	2704997.979	1	6
469	Cherokee	CO	39.807275	-104.964548	CL	ST	RTID	N	3075374.027	1	6
525	Hayden	CO	40.4856	-107.185	CL	ST	RTID	N	3156779.958	1	6
6021	Craig (CO)	CO	40.4627	-107.5912	CL	ST	RTID	N	9281410.042	1	6
58081	Western Sugar Coop- Ft Morgan	CO	40.254167	-103.791111	CL	ST		Y	7530	1	6
568	Bridgeport Station	CT	41.1706	-73.1844	CL	ST	ON	N	831988.003	1	7
594	Indian River Generating Station	DE	38.5857	-75.2341	CL	ST	RTID	N	871739.003	1	8
641	Crist	FL	30.5661	-87.2244	CL	ST	MULTI	N	3469284.032	1	9
628	Crystal River	FL	28.9656	-82.6977	CL	ST	MULTI	N	11760274.96	1	9
645	Big Bend	FL	27.7944	-82.4036	CL	ST	ON	N	10116411.73	1	9
50976	Indiantown Cogeneration LP	FL	27.0389	-80.5125	CL	ST	RTID	Y	659633.999	1	9
10672	Cedar Bay Generating Company LP	FL	30.4225	-81.6064	CL	ST	RTID	Y	879977	1	9
207	St Johns River Power Park	FL	30.4308	-81.5508	CL	ST	RTND	N	7144486.045	1	9
136	Seminole (FL)	FL	29.733056	-81.632778	CL	ST	RTND	N	8210874.049	1	9
642	Scholz	FL	30.6692	-84.8869	CL	ST		N	31637	1	9
727	Mitchell (GA)	GA	31.444728	-84.134696	CL	ST	ON	N	71770	1	10
6124	McIntosh	GA	32.356287	-81.168347	CL	ST	ON	N	256912.001	1	10
708	Hammond	GA	34.2528	-85.3456	CL	ST	ON	N	1130525.98	1	10
709	Harllee Branch	GA	33.195	-83.2983	CL	ST	ON	N	2537860.048	1	10
728	Yates	GA	33.4622	-84.8986	CL	ST	RTID	N	716054.005	1	10
6052	Wansley	GA	33.41342	-85.032329	CL	ST	RTID	N	4852781.029	1	10
703	Bowen	GA	34.1256	-84.9222	CL	ST	RTND	N	15975305.17	1	10
6257	Scherer	GA	33.0606	-83.8075	CL	ST	RTND	N	18894545.75	1	10
10673	AES Hawaii	HI	21.303419	-158.106528	CL	ST	RTID	Y	1481909.044	1	11
1082	Walter Scott Jr Energy Center	IA	41.18	-95.8408	CL	ST	MULTI	Y	10799462.39	1	12
1081	Riverside	IA	41.54	-90.4481	CL	ST	ON	Y	635836.005	1	12
1073	Prairie Creek	IA	41.944039	-91.639167	CL	ST	ON	Y	703370.002	1	12
1048	Milton L Kapp	IA	41.8081	-90.233611	CL	ST	ON	N	787812.997	1	12
1167	Muscatine Plant #1	IA	41.3917	-91.0569	CL	ST	ON	Y	958600.004	1	12
1104	Burlington (IA)	IA	40.7412	-91.116667	CL	ST	ON	N	1122914.048	1	12
1047	Lansing	IA	43.3359	-91.1675	CL	ST	ON	N	1328875.993	1	12
1091	George Neal North	IA	42.299794	-96.361707	CL	ST	ON	N	3342136.964	1	12
7343	George Neal South	IA	42.3006	-96.3617	CL	ST	ON	Y	4323333.046	1	12
10864	Archer Daniels Midland Cedar Rapids	IA	41.9221	-91.6875	CL	ST	RTID	Y	941471.997	1	12
6254	Ottumwa	IA	41.0961	-92.555833	CL	ST	RTID	N	2632396.017	1	12
6664	Louisa	IA	41.3181	-91.0931	CL	ST	RTID	N	4970028.954	1	12
10223	AG Processing Inc	IA	42.665941	-93.902606	CL	ST		Y	341	1	12
10861	Archer Daniels Midland Des Moines	IA	41.624438	-93.584515	CL	ST		Y	23694	1	12
10855	Cargill Corn Milling Division	IA	41.1386	-92.6467	CL	ST		Y	90563.012	1	12
54690	Amalgamated Sugar LLC Nampa	ID	43.6058	-116.5753	CL	ST		Y	39954	1	13
976	Marion	IL	37.619747	-88.953114	CL	ST	OC	N	1714574.046	1	14
963	Dallman	IL	39.754803	-89.602389	CL	ST	OC	N	2346720.989	1	14
861	Coffeen	IL	39.0586	-89.4031	CL	ST	OC	N	5250486.032	1	14
6017	Newton	IL	38.9361	-88.2781	CL	ST	OC	N	6726876.005	1	14
874	Joliet 9	IL	41.4931	-88.1153	CL	ST	ON	N	1126329.022	1	14
892	Hennepin Power Station	IL	41.3028	-89.315	CL	ST	ON	N	1686603.039	1	14
883	Waukegan	IL	42.3833	-87.8133	CL	ST	ON	N	2785108.03	1	14
898	Wood River	IL	38.8639	-90.1347	CL	ST	ON	N	3138835.99	1	14
856	E D Edwards	IL	40.5958	-89.6631	CL	ST	ON	N	3713710.999	1	14
884	Will County	IL	41.6334	-88.0629	CL	ST	ON	N	4072413.993	1	14
384	Joliet 29	IL	41.494636	-88.123827	CL	ST	ON	N	5061425.962	1	14
876	Kincaid Generation LLC	IL	39.590556	-89.496389	CL	ST	ON	N	6195907.037	1	14
887	Joppa Steam	IL	37.2094	-88.858889	CL	ST	ON	N	7171321.981	1	14
6016	Duck Creek	IL	40.4663	-89.9841	CL	ST	RC	N	2237999.018	1	14
879	Powerton	IL	40.5408	-89.6786	CL	ST	RC	N	8511424.034	1	14
889	Baldwin Energy Complex	IL	38.205	-89.8544	CL	ST	RC	N	11701587.57	1	14
10865	Archer Daniels Midland Decatur	IL	39.870074	-88.890756	CL	ST	RTID	Y	1168743.005	1	14
891	Havana	IL	40.2797	-90.08	CL	ST	RTID	N	2522610.043	1	14
55856	Prairie State Generating Station	IL	38.279167	-89.666944	CL	ST	RTID	N	9664791	1	14
10867	Tate & Lyle Decatur Plant Cogen	IL	39.84919	-88.931944	CL	ST		Y	290418.4	1	14
990	Harding Street	IN	39.711319	-86.196867	CL	ST	MULTI	N	3758618	1	15
994	AES Petersburg	IN	38.5281	-87.2525	CL	ST	MULTI	N	11266231.37	1	15
1043	Frank E Ratts	IN	38.5201	-87.2662	CL	ST	ON	N	600019.004	1	15
991	Eagle Valley (IN)	IN	39.48517	-86.4183	CL	ST	ON	N	744963.003	1	15
1008	R Gallagher	IN	38.2636	-85.8381	CL	ST	ON	N	896798.002	1	15
1012	F B Culley	IN	37.9111	-87.3275	CL	ST	ON	N	1532180.007	1	15
1010	Wabash River	IN	39.53	-87.4247	CL	ST	ON	N	1888467.956	1	15
995	Bailly	IN	41.645	-87.1225	CL	ST	ON	N	2161416.993	1	15
988	Tanners Creek	IN	39.0814	-84.8594	CL	ST	ON	N	2602639.969	1	15
1001	Cayuga	IN	39.9242	-87.4244	CL	ST	ON	N	4520671.985	1	15
6705	Warrick	IN	37.915	-87.3328	CL	ST	ON	Y	5511831.953	1	15
983	Clifty Creek	IN	38.7378	-85.4206	CL	ST	ON	N	6062462.992	1	15
6213	Merom	IN	39.0694	-87.5108	CL	ST	RC	N	6444869.045	1	15
6113	Gibson	IN	38.372222	-87.765833	CL	ST	RC	N	17747363.5	1	15
6137	A B Brown	IN	37.9053	-87.715	CL	ST	RTID	N	3046024.963	1	15
6085	R M Schahfer	IN	41.2164	-87.0261	CL	ST	RTID	N	7566221.026	1	15
997	Michigan City	IN	41.7208	-86.9086	CL	ST	RTND	N	2738999.003	1	15
6166	Rockport	IN	37.9256	-87.0372	CL	ST	RTND	N	16717089.82	1	15
1024	Crawfordsville Power Plant	IN	40.048889	-86.8992	CL	ST		N	21368	1	15
1040	Whitewater Valley	IN	39.8028	-84.8953	CL	ST		N	45133	1	15
1032	Logansport	IN	40.758858	-86.360289	CL	ST		N	114789	1	15
1295	Quindaro	KS	39.1492	-94.6381	CL	ST	ON	N	1071102.982	1	16
6064	Nearman Creek	KS	39.1681	-94.6975	CL	ST	ON	N	1375228.986	1	16
1241	La Cygne	KS	38.3481	-94.6456	CL	ST	RC	N	7939783.024	1	16
1252	Tecumseh Energy Center	KS	39.0539	-95.568889	CL	ST	RTID	N	1328608.042	1	16
108	Holcomb	KS	37.9308	-100.9725	CL	ST	RTID	N	1981862.044	1	16
1250	Lawrence Energy Center	KS	39.0072	-95.269167	CL	ST	RTID	N	3673823.991	1	16
6068	Jeffrey Energy Center	KS	39.286453	-96.117231	CL	ST	RTID	N	11466660.95	1	16
1364	Mill Creek (KY)	KY	38.0525	-85.9103	CL	ST	MULTI	N	8715108.969	1	17
1385	Dale	KY	37.8806	-84.2619	CL	ST	ON	N	16062	1	17
1357	Green River	KY	37.3636	-87.1214	CL	ST	ON	N	1027825.996	1	17
1384	Cooper	KY	36.9981	-84.5919	CL	ST	ON	N	1029439.997	1	17
1381	Kenneth C Coleman	KY	37.9631	-86.7911	CL	ST	ON	N	1064462.046	1	17
1374	Elmer Smith	KY	37.7942	-87.0608	CL	ST	ON	N	2370785.995	1	17
1363	Cane Run	KY	38.1831	-85.8892	CL	ST	ON	N	2503871.968	1	17
1379	Shawnee	KY	37.1517	-88.775	CL	ST	ON	N	7030667.029	1	17
6071	Trimble County	KY	38.5847	-85.4117	CL	ST	RT	N	7350218.978	1	17
1382	HMP&L Station Two Henderson	KY	37.6469	-87.5028	CL	ST	RTID	N	2302384.018	1	17
1355	E W Brown	KY	37.78831	-84.71257	CL	ST	RTID	N	2635917.042	1	17
6018	East Bend	KY	38.9036	-84.8514	CL	ST	RTID	N	2910996.001	1	17
6041	H L Spurlock	KY	38.7	-83.8181	CL	ST	RTID	N	8592709.96	1	17
1356	Ghent	KY	38.7497	-85.035	CL	ST	RTID	N	12606171.66	1	17
1353	Big Sandy	KY	38.1707	-82.6176	CL	ST	RTND	N	4708473.025	1	17
1378	Paradise	KY	37.2608	-86.9783	CL	ST	RTND	N	13334680.44	1	17
1383	Robert A Reid	KY	37.6461	-87.5019	CL	ST		N	199401.998	1	17
6055	Big Cajun 2	LA	30.7261	-91.3692	CL	ST	MULTI	N	10712768.71	1	18
51	Dolet Hills	LA	32.030556	-93.569167	CL	ST	RTID	N	2899536.98	1	18
1606	Mount Tom	MA	42.2806	-72.6055	CL	ST	ON	N	5236	1	19
10417	Indian Orchard Plant 1	MA	42.156898	-72.524153	CL	ST		Y	22664	1	19
1552	C P Crane	MD	39.323604	-76.365119	CL	ST	ON	N	491179.003	1	20
1572	Dickerson	MD	39.2097	-77.4644	CL	ST	ON	N	1189286.984	1	20
1573	Morgantown Generating Plant	MD	38.3592	-76.9767	CL	ST	ON	N	6134203.016	1	20
602	Brandon Shores	MD	39.18	-76.5389	CL	ST	RTID	N	4758982.031	1	20
1702	Dan E Karn	MI	43.644996	-83.840074	CL	ST	MULTI	N	2048505.96	1	22
1831	Eckert Station	MI	42.71839	-84.55808	CL	ST	ON	N	549251.998	1	22
1720	J C Weadock	MI	43.639927	-83.844712	CL	ST	ON	N	1710906.971	1	22
1723	J R Whiting	MI	41.792114	-83.44948	CL	ST	ON	N	1818778.956	1	22
1695	B C Cobb	MI	43.258768	-86.242268	CL	ST	ON	N	1888680.008	1	22
1769	Presque Isle	MI	46.5789	-87.395	CL	ST	ON	N	1892723.032	1	22
1745	Trenton Channel	MI	42.1217	-83.1808	CL	ST	ON	N	2535808.046	1	22
1743	St Clair	MI	42.7642	-82.4719	CL	ST	ON	N	5414558.965	1	22
6034	Belle River	MI	42.7756	-82.495	CL	ST	ON	N	7584834.971	1	22
1710	J H Campbell	MI	42.910296	-86.20074	CL	ST	ON	N	8591310.967	1	22
1733	Monroe (MI)	MI	41.8906	-83.3464	CL	ST	ON	N	15294729.53	1	22
1832	Erickson Station	MI	42.692222	-84.657222	CL	ST	RTID	N	935528.998	1	22
1771	Escanaba	MI	45.771667	-87.063922	CL	ST		N	24555	1	22
1830	James De Young	MI	42.7956	-86.1133	CL	ST		N	51238	1	22
1825	J B Sims	MI	43.0706	-86.235	CL	ST		N	174462.003	1	22
1843	Shiras	MI	46.530598	-87.392206	CL	ST		N	303816.005	1	22
1893	Clay Boswell	MN	47.2611	-93.6528	CL	ST	MULTI	N	7359661.032	1	23
1891	Syl Laskin	MN	47.5306	-92.1619	CL	ST	ON	N	346845.999	1	23
1943	Hoot Lake	MN	46.290641	-96.043252	CL	ST	ON	N	581565.999	1	23
10849	Silver Bay Power	MN	47.286573	-91.260531	CL	ST	ON	Y	605383.003	1	23
10075	Taconite Harbor Energy Center	MN	47.5314	-90.9114	CL	ST	ON	N	1089924.047	1	23
1915	Allen S King	MN	45.03	-92.7786	CL	ST	ON	N	2992941.966	1	23
6090	Sherburne County	MN	45.3808	-93.8931	CL	ST	RTID	Y	13324305.25	1	23
54533	Southern Minnesota Beet Sugar	MN	44.796405	-95.179787	CL	ST		Y	10469	1	23
10863	Archer Daniels Midland Mankato	MN	44.187066	-93.99242	CL	ST		Y	22415	1	23
54211	American Crystal Sugar Moorhead	MN	46.9026	-96.76112	CL	ST		Y	36733.9	1	23
54214	American Crystal Sugar East Grand Forks	MN	47.927202	-97.007153	CL	ST		Y	37350.82	1	23
6065	Iatan	MO	39.4472	-94.98	CL	ST	MULTI	N	9187941.971	1	24
2080	Montrose	MO	38.3114	-93.9348	CL	ST	OC	N	2870968.965	1	24
2161	James River Power Station	MO	37.108611	-93.261944	CL	ST	ON	N	677255.004	1	24
2094	Sibley	MO	39.178319	-94.184445	CL	ST	ON	N	1522599.96	1	24
2107	Sioux	MO	38.915479	-90.290247	CL	ST	ON	N	4964295.008	1	24
2104	Meramec	MO	38.4017	-90.3358	CL	ST	ON	N	5042284.958	1	24
6155	Rush Island	MO	38.131248	-90.263157	CL	ST	ON	N	7869454.992	1	24
2168	Thomas Hill	MO	39.5522	-92.6381	CL	ST	ON	N	7945918.039	1	24
2167	New Madrid	MO	36.5147	-89.5617	CL	ST	ON	N	8332091.028	1	24
2103	Labadie	MO	38.562244	-90.837686	CL	ST	ON	N	15183698.22	1	24
2076	Asbury	MO	37.361315	-94.58926	CL	ST	RC	N	1060478.002	1	24
2132	Blue Valley	MO	39.0919	-94.3261	CL	ST	RTID	N	52487	1	24
6768	Sikeston Power Station	MO	36.8791	-89.6209	CL	ST	RTID	N	1744286.007	1	24
6195	John Twitty Energy Center	MO	37.151706	-93.38804	CL	ST	RTID	N	2416397.997	1	24
57932	Wentzville Assembly & Contiguous	MO	38.82	-90.818056	CL	ST		Y	2395	1	24
6061	R D Morrow	MS	31.2186	-89.394	CL	ST	RTID	N	764201	1	25
55076	Red Hills Generating Facility	MS	33.3761	-89.2183	CL	ST	RTID	N	2471697.954	1	25
2187	J E Corette Plant	MT	45.77562	-108.480999	CL	ST	ON	N	580510.997	1	26
55749	Hardin Generator Project	MT	45.7578	-107.6	CL	ST	RTID	N	679774.997	1	26
6076	Colstrip	MT	45.8831	-106.614	CL	ST	RTID	N	13729879.08	1	26
57914	Sidney MT Plant	MT	47.717222	-104.135556	CL	ST		Y	8812	1	26
6089	Lewis & Clark	MT	47.6785	-104.15665	CL	ST		N	290192.998	1	26
2712	Roxboro	NC	36.4833	-79.0731	CL	ST	MULTI	N	12804923.96	1	27
2718	G G Allen	NC	35.1897	-81.0122	CL	ST	ON	N	2398805.021	1	27
2727	Marshall (NC)	NC	35.5975	-80.9658	CL	ST	ON	N	9408050.046	1	27
8042	Belews Creek	NC	36.2811	-80.0603	CL	ST	ON	N	13431669.05	1	27
2706	Asheville	NC	35.4731	-82.5417	CL	ST	RC	N	1513320.971	1	27
10384	Edgecombe Genco LLC	NC	36.037318	-77.753345	CL	ST	RTID	Y	108885	1	27
54035	Roanoke Valley Energy Facililty I	NC	36.4364	-77.6167	CL	ST	RTID	Y	593073.002	1	27
6250	Mayo	NC	36.5278	-78.8917	CL	ST	RTID	N	2584492.979	1	27
2721	James E. Rogers Energy Complex	NC	35.22	-81.7594	CL	ST	RTID	N	6053808.024	1	27
54276	Univ of NC Chapel Hill Cogen Facility	NC	35.9069	-79.0617	CL	ST		Y	23521	1	27
54755	Roanoke Valley Energy Facility II	NC	36.4364	-77.6167	CL	ST		Y	85206	1	27
2823	Milton R Young	ND	47.065854	-101.213093	CL	ST	OC	N	4557992.024	1	28
2790	R M Heskett	ND	46.8669	-100.8836	CL	ST	ON	N	547268.001	1	28
2824	Stanton	ND	47.286643	-101.331908	CL	ST	ON	N	1307307.955	1	28
2817	Leland Olds	ND	47.280769	-101.321213	CL	ST	ON	N	3453455.016	1	28
56786	Spiritwood Station	ND	46.926423	-98.499713	CL	ST	RTID	Y	32125	1	28
8222	Coyote	ND	47.221447	-101.815722	CL	ST	RTID	N	2745038.039	1	28
6469	Antelope Valley	ND	47.370542	-101.83566	CL	ST	RTID	N	5838431.047	1	28
6030	Coal Creek	ND	47.377743	-101.157058	CL	ST	RTID	Y	8880797.963	1	28
54210	American Crystal Sugar Hillsboro	ND	47.437562	-97.06311	CL	ST		Y	59633.67	1	28
2240	Lon Wright	NE	41.4281	-96.4623	CL	ST	MULTI	N	474483.996	1	29
6096	Nebraska City	NE	40.6214	-95.7764	CL	ST	MULTI	N	8828982.049	1	29
6077	Gerald Gentleman	NE	41.0808	-101.1408	CL	ST	OC	N	8872009.003	1	29
2291	North Omaha	NE	41.32909	-95.94466	CL	ST	ON	N	3060377.049	1	29
59	Platte	NE	40.854765	-98.348222	CL	ST	RTID	N	517872.998	1	29
2277	Sheldon	NE	40.5589	-96.7847	CL	ST	RTID	N	1259591.991	1	29
60	Whelan Energy Center	NE	40.580872	-98.312437	CL	ST	RTID	N	1673670.989	1	29
10862	Archer Daniels Midland Lincoln	NE	40.866463	-96.614486	CL	ST		Y	41886	1	29
57046	Archer Daniels Midland Columbus	NE	41.416442	-97.286328	CL	ST		Y	300397	1	29
2364	Merrimack	NH	43.1411	-71.4692	CL	ST	OC	N	1150061.969	1	30
10043	Logan Generating Company LP	NJ	39.7928	-75.406667	CL	ST	RTID	Y	846076.999	1	31
10566	Chambers Cogeneration LP	NJ	39.693494	-75.485811	CL	ST	RTID	Y	918744.001	1	31
2442	Four Corners	NM	36.69	-108.4814	CL	ST	RC	N	8729343.982	1	32
87	Escalante	NM	35.4159	-108.082	CL	ST	RTID	N	1389686.981	1	32
2451	San Juan	NM	36.8006	-108.4386	CL	ST	RTID	N	10360010.13	1	32
56224	TS Power Plant	NV	40.7461	-116.5297	CL	ST	RTID	N	1424285.971	1	33
2324	Reid Gardner	NV	36.657347	-114.633263	CL	ST	RTID	N	2400950.039	1	33
8224	North Valmy	NV	40.881317	-117.151605	CL	ST	RTID	N	2755910.998	1	33
2554	Dunkirk Generating Plant	NY	42.491467	-79.346631	CL	ST	ON	N	368484.003	1	34
2535	Cayuga Operating Company	NY	42.6028	-76.6336	CL	ST	ON	N	916218.003	1	34
2549	C R Huntley Generating Station	NY	42.97	-78.93	CL	ST	ON	N	1203980.042	1	34
6082	Somerset Operating Co LLC	NY	43.358889	-78.604722	CL	ST	ON	N	1786614.034	1	34
2850	J M Stuart	OH	38.6361	-83.6939	CL	ST	MULTI	N	10336907.31	1	35
2828	Cardinal	OH	40.2522	-80.6486	CL	ST	MULTI	N	10700749.39	1	35
2838	FirstEnergy Lake Shore	OH	41.5356	-81.6419	CL	ST	ON	N	184075.997	1	35
2835	FirstEnergy Ashtabula	OH	41.9086	-80.7697	CL	ST	ON	N	188281.001	1	35
2837	FirstEnergy Eastlake	OH	41.6711	-81.4425	CL	ST	ON	N	1183950.993	1	35
2830	Walter C Beckjord	OH	38.9917	-84.2981	CL	ST	ON	N	1545639.961	1	35
2836	Avon Lake	OH	41.504453	-82.054619	CL	ST	ON	N	2147107.024	1	35
2872	Muskingum River	OH	39.5908	-81.6797	CL	ST	ON	N	3257019.05	1	35
2876	Kyger Creek	OH	38.9144	-82.1289	CL	ST	ON	N	5493736.038	1	35
2832	Miami Fort	OH	39.1128	-84.8036	CL	ST	ON	N	7676345.988	1	35
2866	FirstEnergy W H Sammis	OH	40.5317	-80.6319	CL	ST	ON	N	11920467.99	1	35
6031	Killen Station	OH	38.6903	-83.4803	CL	ST	RTID	N	3820619.017	1	35
2840	Conesville	OH	40.1842	-81.8811	CL	ST	RTID	N	7974026.953	1	35
6019	W H Zimmer	OH	38.8675	-84.2289	CL	ST	RTND	N	7283735.025	1	35
8102	General James M Gavin	OH	38.9347	-82.1158	CL	ST	RTND	N	15867729.45	1	35
2936	Painesville	OH	41.7265	-81.254	CL	ST		N	4808	1	35
54335	Morton Salt Rittman	OH	40.9692	-81.7756	CL	ST		Y	5805.45	1	35
57940	Wausau Paper Middletown	OH	39.519989	-84.406153	CL	ST		Y	8760	1	35
50456	Procter & Gamble Cincinnati Plant	OH	39.175	-84.5042	CL	ST		Y	33030	1	35
2914	Dover	OH	40.520066	-81.46815	CL	ST		N	53670	1	35
2935	Orrville	OH	40.850964	-81.765764	CL	ST		N	261632.998	1	35
6095	Sooner	OK	36.45307	-97.05279	CL	ST	RC	N	5893940.992	1	36
10362	Muskogee Mill	OK	35.7322	-95.2939	CL	ST	RTID	Y	397329.996	1	36
10671	AES Shady Point LLC	OK	35.1931	-94.6458	CL	ST	RTID	Y	1889732.97	1	36
6772	Hugo	OK	34.0158	-95.3206	CL	ST	RTID	N	2460583.002	1	36
165	GREC	OK	36.190278	-95.2894	CL	ST	RTID	N	4674600.041	1	36
2952	Muskogee	OK	35.76135	-95.28732	CL	ST	RTID	N	8085106.953	1	36
6106	Boardman	OR	45.693182	-119.808819	CL	ST	RC	N	3202306.967	1	37
3152	Sunbury Generation LP	PA	40.8361	-76.825	CL	ST	ON	N	93015	1	38
3113	Portland (PA)	PA	40.910205	-75.079398	CL	ST	ON	N	235917.004	1	38
3138	New Castle Plant	PA	40.937939	-80.369007	CL	ST	ON	N	301158.998	1	38
3131	Shawville	PA	41.06755	-78.366228	CL	ST	ON	N	2329488.956	1	38
8226	Cheswick Power Plant	PA	40.5383	-79.7906	CL	ST	ON	N	2921248.982	1	38
3140	Brunner Island	PA	40.096111	-76.6962	CL	ST	ON	N	5944189.97	1	38
3149	PPL Montour	PA	41.0714	-76.6672	CL	ST	RTND	N	6918960.993	1	38
3118	Conemaugh	PA	40.3842	-79.0611	CL	ST	RTND	N	11005160.04	1	38
3136	Keystone	PA	40.6604	-79.3411	CL	ST	RTND	N	11524330.98	1	38
3122	Homer City Generating Station	PA	40.512825	-79.196107	CL	ST	RTND	N	11541845.99	1	38
6094	FirstEnergy Bruce Mansfield	PA	40.6348	-80.4159	CL	ST	RTND	N	17142739.77	1	38
10302	Juniata Locomotive Shop	PA	40.533299	-78.384125	CL	ST		Y	7120	1	38
50284	American Eagle Paper Mills	PA	40.679853	-78.233464	CL	ST		Y	44515	1	38
6249	Winyah	SC	33.331944	-79.357222	CL	ST	MULTI	N	4690240.031	1	40
3264	W S Lee	SC	34.6022	-82.435	CL	ST	ON	N	306752	1	40
3287	McMeekin	SC	34.0556	-81.2172	CL	ST	ON	N	1377732.955	1	40
3298	Williams	SC	33.0158	-79.9297	CL	ST	ON	N	3702495.019	1	40
7210	Cope	SC	33.3644	-81.03	CL	ST	RTID	N	2973345.035	1	40
3297	Wateree	SC	33.8264	-80.6228	CL	ST	RTID	N	3669562.048	1	40
130	Cross	SC	33.371389	-80.113333	CL	ST	RTID	N	11892580.48	1	40
6098	Big Stone	SD	45.303652	-96.510067	CL	ST	RC	Y	2692592.956	1	41
3406	Johnsonville	TN	36.0278	-87.9861	CL	ST	ON	Y	2066891.028	1	42
3396	Bull Run	TN	36.0211	-84.1567	CL	ST	ON	N	3201812.011	1	42
3393	Allen Steam Plant	TN	35.074087	-90.14868	CL	ST	ON	N	4199275.024	1	42
3407	Kingston	TN	35.8992	-84.5194	CL	ST	ON	N	5063432.96	1	42
3403	Gallatin (TN)	TN	36.3156	-86.4006	CL	ST	ON	N	5865701.015	1	42
3399	Cumberland (TN)	TN	36.3903	-87.6539	CL	ST	ON	N	14500956.24	1	42
52048	Vanderbilt University Power Plant	TN	36.145896	-86.803833	CL	ST		Y	10515	1	42
3497	Big Brown	TX	31.8206	-96.0544	CL	ST	OC	N	7258479.974	1	43
3470	W A Parish	TX	29.4828	-95.6311	CL	ST	OC	N	16130293.82	1	43
6147	Monticello	TX	33.0917	-95.0417	CL	ST	ON	N	6537427.014	1	43
6179	Fayette Power Project	TX	29.9172	-96.7506	CL	ST	ON	N	9283719.952	1	43
6146	Martin Lake	TX	32.2606	-94.5706	CL	ST	ON	N	13601314.02	1	43
6136	Gibbons Creek	TX	30.619937	-96.081846	CL	ST	RC	N	2785913.02	1	43
6648	Sandow No 4	TX	30.565871	-97.064032	CL	ST	RC	N	4501016.976	1	43
7902	Pirkey	TX	32.4607	-94.4852	CL	ST	RC	N	5084651.966	1	43
6178	Coleto Creek	TX	28.7128	-97.214167	CL	ST	RC	N	5172880.025	1	43
6181	J T Deely	TX	29.308056	-98.3228	CL	ST	RC	N	5692421.002	1	43
7097	J K Spruce	TX	29.309722	-98.3203	CL	ST	RC	N	9278877.977	1	43
6180	Oak Grove (TX)	TX	31.1803	-96.4866	CL	ST	RC	N	12910945.34	1	43
6183	San Miguel	TX	28.7044	-98.4775	CL	ST	RTID	N	2173032.024	1	43
7030	Twin Oaks Power One	TX	31.091925	-96.69503	CL	ST	RTID	N	2316751.979	1	43
127	Oklaunion	TX	34.0825	-99.1753	CL	ST	RTID	N	3216641.024	1	43
52071	Sandow No 5	TX	30.5681	-97.0614	CL	ST	RTID	N	4188796.963	1	43
6193	Harrington	TX	35.29816	-101.747187	CL	ST	RTID	N	5730314.958	1	43
56611	Sandy Creek Energy Station	TX	31.474378	-96.957149	CL	ST	RTID	N	6479705	1	43
6194	Tolk	TX	34.186494	-102.56999	CL	ST	RTID	N	6687711.975	1	43
6139	Welsh	TX	33.05522	-94.839993	CL	ST	RTID	N	7982239.954	1	43
298	Limestone	TX	31.4219	-96.2525	CL	ST	RTID	N	11977246.06	1	43
3644	Carbon	UT	39.7272	-110.8644	CL	ST	RTID	N	1283644.992	1	44
7790	Bonanza	UT	40.0864	-109.2844	CL	ST	RTID	N	3479954.954	1	44
8069	Huntington	UT	39.3792	-111.0781	CL	ST	RTID	N	6300997.967	1	44
6165	Hunter	UT	39.1747	-111.0289	CL	ST	RTID	N	9098917.954	1	44
6481	Intermountain Power Project	UT	39.509731	-112.58018	CL	ST	RTID	N	12369825.97	1	44
56808	Virginia City Hybrid Energy Center	VA	36.916389	-82.338055	CL	ST	DC	N	3535119.003	1	45
3776	Glen Lyn	VA	37.3706	-80.8633	CL	ST	ON	N	92081	1	45
3803	Chesapeake	VA	36.7711	-76.3019	CL	ST	ON	N	1405016.021	1	45
10377	James River Genco LLC	VA	37.2939	-77.2697	CL	ST	RTID	Y	98623	1	45
10071	Portsmouth Genco LLC	VA	36.8702	-76.3529	CL	ST	RTID	N	107917	1	45
54081	Spruance Genco LLC	VA	37.4556	-77.4308	CL	ST	RTID	Y	247766	1	45
52007	Mecklenburg Power Station	VA	36.6	-78.53	CL	ST	RTID	N	454699.996	1	45
3775	Clinch River	VA	36.9333	-82.1997	CL	ST	RTID	N	729194	1	45
54304	Birchwood Power	VA	38.2667	-77.3147	CL	ST	RTID	N	848350.998	1	45
7213	Clover	VA	36.869	-78.704	CL	ST	RTID	N	5678306.037	1	45
50275	Park 500 Philip Morris USA	VA	37.3389	-77.2806	CL	ST		Y	8535.147	1	45
52072	Radford Army Ammunition Plant	VA	37.180441	-80.542767	CL	ST		Y	23490	1	45
3845	Transalta Centralia Generation	WA	46.755938	-122.859764	CL	ST	RTID	N	6683651.004	1	47
4078	Weston	WI	44.8606	-89.6553	CL	ST	MULTI	N	5012425.019	1	48
4140	Alma	WI	44.308333	-91.911111	CL	ST	ON	N	69294	1	48
4072	Pulliam	WI	44.54	-88.0086	CL	ST	ON	N	967350.996	1	48
4054	Nelson Dewey Generating Station	WI	42.7225	-91.0085	CL	ST	ON	N	1105999.032	1	48
4271	John P Madgett	WI	44.303583	-91.912647	CL	ST	ON	N	1383643.016	1	48
4143	Genoa	WI	43.5589	-91.2325	CL	ST	ON	N	1605456.02	1	48
4050	Edgewater	WI	43.715142	-87.705863	CL	ST	ON	N	3832680.015	1	48
4041	South Oak Creek	WI	42.8457	-87.8294	CL	ST	ON	N	4327162.041	1	48
56068	Elm Road Generating Station	WI	42.8492	-87.8336	CL	ST	ON	N	6820940.021	1	48
8023	Columbia (WI)	WI	43.4864	-89.4203	CL	ST	RC	N	4939935.042	1	48
6170	Pleasant Prairie	WI	42.5381	-87.9033	CL	ST	RTID	N	6231479.989	1	48
3954	Mt Storm	WV	39.2008	-79.2636	CL	ST	OC	N	9850216.974	1	49
3947	Kammer	WV	39.8461	-80.8186	CL	ST	ON	N	1023815.999	1	49
3938	Philip Sporn	WV	38.9669	-81.9231	CL	ST	ON	N	1425558.021	1	49
3936	Kanawha River	WV	38.2056	-81.4211	CL	ST	ON	N	1548882.96	1	49
56671	Longview Power LLC	WV	39.707893	-79.958974	CL	ST	RTID	N	3755227.994	1	49
3943	FirstEnergy Fort Martin Power Station	WV	39.710833	-79.9275	CL	ST	RTND	N	6168168.971	1	49
6264	Mountaineer	WV	38.9794	-81.9344	CL	ST	RTND	N	8241231.026	1	49
3948	Mitchell (WV)	WV	39.8297	-80.8153	CL	ST	RTND	N	8506339.98	1	49
6004	FirstEnergy Pleasants Power Station	WV	39.366667	-81.294444	CL	ST	RTND	N	8578385.979	1	49
3944	FirstEnergy Harrison Power Station	WV	39.384167	-80.3325	CL	ST	RTND	N	12845557.05	1	49
3935	John E Amos	WV	38.4731	-81.8233	CL	ST	RTND	N	13544834.29	1	49
57917	Bayer CropScience Institute Plant	WV	38.380833	-81.7725	CL	ST		N	18260.105	1	49
56596	Wygen III	WY	44.2919	-105.3806	CL	ST	DC	N	838977	1	50
6101	Wyodak	WY	44.290128	-105.381482	CL	ST	DC	N	2622574.952	1	50
56609	Dry Fork Station	WY	44.388889	-105.460833	CL	ST	DC	N	3277439.01	1	50
4158	Dave Johnston	WY	42.8378	-105.7769	CL	ST	MULTI	N	5183443.971	1	50
4162	Naughton	WY	41.7581	-110.5983	CL	ST	RTID	N	4958588.961	1	50
6204	Laramie River Station	WY	42.108889	-104.8825	CL	ST	RTID	N	10102048.96	1	50
8066	Jim Bridger	WY	41.7378	-108.7875	CL	ST	RTID	N	14015874.98	1	50
4150	Neil Simpson	WY	44.2872	-105.3878	CL	ST		N	25430	1	50
7504	Neil Simpson II	WY	44.2856	-105.3833	CL	ST		N	567896.001	1	50
56319	Wygen 2	WY	44.2919	-105.3811	CL	ST		N	697290.002	1	50
55479	Wygen 1	WY	44.2858	-105.3833	CL	ST		N	705405.997	1	50
50711	University of Alaska Fairbanks	AK	64.854171	-147.822075	CL/DFO	ST		Y	47355.275	2	1
2378	B L England	NJ	39.2908	-74.6364	CL/DFO	ST	MULTI	N	239624	2	31
7	Gadsden	AL	34.0128	-85.9708	CL/NG	ST	ON	Y	216750.001	3	2
126	H Wilson Sundt Generating Station	AZ	32.16	-110.9047	CL/NG	ST	RTID	N	834567	3	4
10003	Colorado Energy Nations Company	CO	39.7606	-105.215	CL/NG	ST		Y	177468.245	3	6
7242	Polk	FL	27.7286	-81.9897	CL/NG	CC	RC	N	1592638.997	3	9
663	Deerhaven Generating Station	FL	29.7592	-82.3878	CL/NG	ST	RTID	N	879546	3	9
733	Kraft	GA	32.1486	-81.1458	CL/NG	ST	ON	N	591877.001	3	10
753	Crisp Plant	GA	31.844708	-83.940734	CL/NG	ST		N	525	3	10
50146	Imperial Savannah LP	GA	32.143989	-81.14655	CL/NG	ST		Y	47996	3	10
1217	Earl F Wisdom	IA	43.1606	-95.2569	CL/NG	ST		N	13175	3	12
1131	Streeter Station	IA	42.5267	-92.4394	CL/NG	ST		N	13714	3	12
54201	Iowa State University	IA	42.0275	-93.6394	CL/NG	ST		Y	114848	3	12
10504	Amalgamated Sugar Twin Falls	ID	42.5328	-114.4328	CL/NG	ST		Y	46019.498	3	13
10039	John Deere Harvester Works	IL	41.524315	-90.43659	CL/NG	ST		Y	2710.18	3	14
55245	Tuscola Station	IL	39.798175	-88.349771	CL/NG	ST		Y	40594	3	14
54780	University of Illinois Abbott Power Plt	IL	40.105169	-88.241528	CL/NG	ST		Y	80563.724	3	14
54556	Ingredion Incorporated	IL	41.7775	-87.8233	CL/NG	ST		Y	297122.998	3	14
1004	Edwardsport	IN	38.8067	-87.2472	CL/NG	CC	RTID	N	2178808	3	15
992	CC Perry K	IN	39.7631	-86.1667	CL/NG	ST		Y	8230.73	3	15
50903	Sagamore Plant Cogeneration	IN	40.4439	-86.86	CL/NG	ST		Y	25816.55	3	15
50366	University of Notre Dame	IN	41.7094	-86.2367	CL/NG	ST		Y	69497.872	3	15
50240	Purdue University	IN	40.4172	-86.9122	CL/NG	ST		Y	103307.009	3	15
1619	Brayton Point	MA	41.7103	-71.1931	CL/NG	ST	RTND	N	2717648.991	3	19
1571	Chalk Point LLC	MD	38.5444	-76.6861	CL/NG	ST	MULTI	N	2913467.957	3	20
1740	River Rouge	MI	42.2739	-83.1119	CL/NG	ST	ON	N	2295825	3	22
57949	MSC Sebewaing	MI	43.741111	-83.447222	CL/NG	ST		N	1102	3	22
57950	MSC Croswell	MI	43.266389	-82.619167	CL/NG	ST		N	2327	3	22
54965	Cargill Salt	MI	42.8183	-82.4856	CL/NG	ST		Y	10737.9	3	22
10148	White Pine Electric Power	MI	46.7644	-89.5669	CL/NG	ST		N	22609	3	22
58222	E.B. Eddy Paper Inc	MI	42.988611	-82.436667	CL/NG	ST		Y	30522.02	3	22
54867	Neenah Paper Munising Mill	MI	46.4094	-86.6443	CL/NG	ST		Y	31756	3	22
10328	T B Simon Power Plant	MI	42.7178	-84.4836	CL/NG	ST		Y	273331.129	3	22
2022	Willmar	MN	45.121705	-95.053236	CL/NG	ST		Y	29070	3	23
2098	Lake Road (MO)	MO	39.7246	-94.8773	CL/NG	ST	MULTI	N	248527.001	3	24
58205	Grand Ave Plant	MO	39.111944	-94.581111	CL/NG	ST		Y	35040	3	24
2123	Columbia (MO)	MO	38.964646	-92.316768	CL/NG	ST		N	52700	3	24
2049	Jack Watson	MS	30.4392	-89.0286	CL/NG	ST	MULTI	N	4211066.978	3	25
2408	PSEG Mercer Generating Station	NJ	40.1792	-74.7339	CL/NG	ST	ON	N	419957.001	3	31
2403	PSEG Hudson Generating Station	NJ	40.7478	-74.0722	CL/NG	ST	ON	N	1060444	3	31
10025	"RED-Rochester, LLC"	NY	43.1989	-77.6319	CL/NG	ST		Y	351767.005	3	34
58194	West Campus Steam Plant	PA	40.792778	-77.864722	CL/NG	ST		Y	11996.96	3	38
10795	Camden South Carolina	SC	34.2338	-80.6558	CL/NG	ST		Y	11850.103	3	40
50481	Tennessee Eastman Operations	TN	36.5219	-82.5431	CL/NG	ST	ON	Y	1142762.025	3	42
10729	Cargill Corn Wet Milling Plant	TN	35.082107	-90.134776	CL/NG	ST		Y	35061	3	42
56785	Virginia Tech Power Plant	VA	37.2319	-80.4211	CL/NG	ST		Y	27924.36	3	45
52089	Celanese Acetate LLC	VA	37.3439	-80.765	CL/NG	ST		Y	152786.616	3	45
4042	Valley (WI)	WI	43.0303	-87.9233	CL/NG	ST	ON	Y	548164	3	48
54407	Waupun Correctional Central Heating Plt	WI	43.6233	-88.7297	CL/NG	ST		Y	1900	3	48
7549	Milwaukee County	WI	43.046	-88.0281	CL/NG	ST		N	25361	3	48
50933	Rhinelander Mill	WI	45.6394	-89.4205	CL/NG	ST		Y	53429.171	3	48
57967	Western Sugar Coop - Torrington	WY	42.0469	-104.1863	CL/NG	ST		Y	5595	3	50
54318	General Chemical	WY	41.5933	-109.7542	CL/NG	ST		Y	228347.819	3	50
57915	FMC Westvaco	WY	41.621667	-109.811944	CL/NG	ST		Y	297733.997	3	50
8083	Keahole	HI	19.7317	-156.0283	DFO	CC		N	295738	4	11
6504	Maalaea	HI	20.80117	-156.492981	DFO	CC		N	546402	4	11
10307	Bellingham Cogeneration Facility	MA	42.0925	-71.4833	DFO/NG	CC	DC	N	415745.997	5	19
6081	Stony Brook	MA	42.1978	-72.5106	DFO/NG	CC	RTID	N	194359	5	19
55661	EP Newington Energy LLC	NH	43.1047	-70.8061	DFO/NG	CC	RTID	N	939577.002	5	30
50966	Bellmeade Power Station	VA	37.4964	-77.4317	DFO/NG	CC	RTID	N	251792.003	5	45
54646	Kalaeloa Cogen Plant	HI	21.302106	-158.096318	DFO/RFO	CC		Y	1309575.999	6	11
6474	Port Allen (HI)	HI	21.899583	-159.585042	DFO/WO	CC		N	13598	7	11
55369	Hamakua Energy Plant	HI	20.0939	-155.4711	DFO/WO	CC		N	182295.004	7	11
50964	Amedee Geothermal Venture I	CA	40.300833	-120.105	GEO	ST		N	1525	8	5
50762	Ormesa IH	CA	32.7842	-115.2475	GEO	ST		N	33960	8	5
10763	Geo East Mesa III	CA	32.7757	-115.2637	GEO	ST		N	46944	8	5
55984	CE Turbo LLC	CA	33.1669	-115.5114	GEO	ST		N	52329	8	5
902	Bottle Rock Power	CA	38.8348	-122.7677	GEO	ST		N	69072	8	5
10878	Salton Sea Power Gen Co Unit 1	CA	33.158	-115.6475	GEO	ST		N	70725	8	5
54038	Geo East Mesa II	CA	32.7757	-115.2637	GEO	ST		N	71914	8	5
50766	Ormesa I	CA	32.8156	-115.2568	GEO	ST		Y	79904	8	5
54724	Ormesa II	CA	32.7881	-115.2481	GEO	ST		Y	83900	8	5
10469	Bear Canyon Power Plant	CA	38.762968	-122.692915	GEO	ST		N	89366	8	5
10879	Salton Sea Power Gen Co - Unit 2	CA	33.158	-115.6475	GEO	ST		N	110714	8	5
52158	Aidlin Geothermal Power Plant	CA	38.8339	-122.881	GEO	ST		N	139692	8	5
10199	West Ford Flat Power Plant	CA	38.7881	-122.7219	GEO	ST		N	207225	8	5
54689	Heber Geothermal	CA	32.7146	-115.518	GEO	ST		N	248386	8	5
50210	Vulcan-BN Geothermal Power Company	CA	33.1633	-115.6167	GEO	ST		N	271038	8	5
54996	Salton Sea Power Gen Co - Unit 4	CA	33.157	-115.6386	GEO	ST		N	295485	8	5
55983	Salton Sea Power LLC - Unit 5	CA	33.1533	-115.6384	GEO	ST		N	303206	8	5
10632	Del Ranch Company	CA	33.1646	-115.616	GEO	ST		N	317092	8	5
510	Sonoma California Geothermal	CA	38.7903	-122.7559	GEO	ST		N	318272	8	5
10759	Salton Sea Power Gen Co - Unit 3	CA	33.158153	-115.638656	GEO	ST		N	324243	8	5
10875	Coso Energy Developers	CA	36.0019	-117.7886	GEO	ST		N	340994	8	5
10634	Elmore Company	CA	33.1777	-115.6033	GEO	ST		N	344670	8	5
10631	CE Leathers	CA	33.1779	-115.565	GEO	ST		N	359218	8	5
7369	Geothermal 2	CA	38.7492	-122.7117	GEO	ST		N	371135	8	5
57475	John L. Featherstone Plant	CA	33.204635	-115.573303	GEO	ST		N	429194	8	5
10874	Coso Power Developers	CA	36.0192	-117.7917	GEO	ST		N	449159	8	5
7368	Geothermal 1	CA	38.752	-122.7195	GEO	ST		N	469471	8	5
10873	Coso Finance Partners	CA	36.0372	-117.7981	GEO	ST		N	473318	8	5
50066	Calistoga Power Plant	CA	38.7879	-122.7434	GEO	ST		N	490053	8	5
286	Geysers Unit 5-20	CA	38.777	-122.745	GEO	ST		N	4591707	8	5
52028	Puna Geothermal Venture I	HI	19.478976	-154.888362	GEO	ST		N	195339	8	11
55988	Wabuska	NV	39.164129	-119.180068	GEO	ST		N	10614	8	33
50654	Steamboat Hills LP	NV	39.37	-119.766944	GEO	ST		N	36183	8	33
55991	Brady	NV	39.796032	-119.010013	GEO	ST		N	52129	8	33
52174	Soda Lake Geothermal No I II	NV	39.557	-118.8383	GEO	ST		N	68302	8	33
57456	San Emidio	NV	40.380556	-119.399722	GEO	ST		N	76894	8	33
10287	Beowawe Power	NV	40.5547	-116.6175	GEO	ST		N	96109	8	33
52015	Terra-Gen Dixie Valley	NV	39.9663	-117.8557	GEO	ST		N	487764	8	33
299	Blundell	UT	38.4889	-112.8533	GEO	ST		N	274996	8	44
6285	North Pole	AK	64.7356	-147.3481	JF/DFO	CC		N	273333.005	9	1
58007	Brea Expansion Plant	CA	33.932022	-117.840233	LFG	CC		N	225238.85	10	5
50572	CSL Gas Recovery	FL	26.287966	-80.166526	LFG	CC		N	37482	10	9
55592	Mallard Lake Electric	IL	41.952742	-88.143737	LFG	CC		N	57889	10	14
55596	GRS Arbor Hills	MI	42.395335	-83.557999	LFG	CC		N	124496	10	22
55598	GRS Pine Bend	MN	44.786977	-93.055586	LFG	CC		N	35023	10	23
56119	Middlesex Generating Facility	NJ	40.4903	-74.3156	LFG	CC		Y	81206	10	31
59254	Johnston LFG Turbine Plant	RI	41.803333	-71.523333	LFG	CC		N	206694.39	10	39
7832	Roosevelt Biogas 1	WA	45.801549	-120.167176	LFG	CC		N	151659	10	47
55966	Nikiski Co-Generation	AK	60.676539	-151.377713	NG	CC		N	371284	11	1
6559	George M Sullivan Generation Plant 2	AK	61.229713	-149.716744	NG	CC		N	445581.997	11	1
57036	Southcentral Power Project	AK	61.167417	-149.905304	NG	CC		N	909356	11	1
96	Beluga	AK	61.1861	-151.0356	NG	CC		N	1020951	11	1
3	Barry	AL	31.0069	-88.0103	NG	CC	ON	N	12981028.97	11	2
55292	Decatur Energy Center	AL	34.6292	-87.0214	NG	CC	RTID	N	991669	11	2
55271	Tenaska Lindsay Hill Generating Station	AL	32.6514	-86.7386	NG	CC	RTID	N	3035953	11	2
533	McWilliams	AL	31.400255	-86.476449	NG	CC	RTID	N	3193339.013	11	2
55293	Morgan Energy Center	AL	34.6397	-87.0639	NG	CC	RTID	Y	3837308	11	2
55440	Tenaska Central Alabama Generating Stn	AL	32.6497	-86.74	NG	CC	RTID	N	4476599	11	2
7897	E B Harris Electric Generating Plant	AL	32.381352	-86.574366	NG	CC	RTID	N	4790497	11	2
55411	Hillabee Energy Center	AL	33.000669	-85.903278	NG	CC	RTID	N	5027955	11	2
7710	H Allen Franklin Combined Cycle	AL	32.6078	-85.0975	NG	CC	RTID	N	10167617	11	2
54550	ExxonMobil Mobile Bay Onshore	AL	30.43203	-88.18241	NG	CC		Y	71749	11	2
55241	Hog Bayou Energy Center	AL	30.7478	-88.0575	NG	CC		N	468635	11	2
7698	General Electric Plastic	AL	32.310226	-86.52542	NG	CC		Y	537102	11	2
54096	International Paper Riverdale Mill	AL	32.426016	-86.870912	NG	CC		Y	550417	11	2
7697	Washington County Cogeneration Facility	AL	31.2504	-88.0156	NG	CC		Y	828885	11	2
7721	Theodore Cogen Facility	AL	30.525445	-88.128477	NG	CC		Y	1525962	11	2
202	Carl Bailey	AR	35.260102	-91.363426	NG	ST	ON	N	3132	11	3
170	Lake Catherine	AR	34.4341	-92.9049	NG	ST	ON	N	90653	11	3
203	McClellan (AR)	AR	33.5648	-92.7917	NG	ST	ON	N	117552.003	11	3
55714	Magnet Cove	AR	34.4297	-92.8317	NG	CC	RTID	N	131859	11	3
55340	Dell Power Station	AR	35.8619	-90.0253	NG	CC	RTID	N	156765.996	11	3
55221	Harry L. Oswald	AR	34.5923	-92.2166	NG	CC	RTID	N	159242	11	3
55418	Hot Spring Generating Facility	AR	34.29759	-92.868344	NG	CC	RTID	N	1266981	11	3
55380	Union Power Partners LP	AR	33.296146	-92.589364	NG	CC	RTID	N	6248560	11	3
201	Thomas Fitzhugh	AR	35.462382	-93.804926	NG	CC		N	26085	11	3
55075	Pine Bluff Energy Center	AR	34.2181	-91.9025	NG	CC		Y	1058494	11	3
59784	Gila River Power Block 3	AZ	32.975	-112.6944	NG	CC	RTID	N	1081	11	4
141	Agua Fria	AZ	33.5561	-112.2153	NG	ST	RTID	N	12139	11	4
116	Ocotillo	AZ	33.4225	-111.9122	NG	ST	RTID	N	74245	11	4
147	Kyrene	AZ	33.3556	-111.9353	NG	CC	RTID	N	702452	11	4
55177	South Point Energy Center	AZ	34.8678	-114.5317	NG	CC	RTID	N	1106812	11	4
55282	Arlington Valley Energy Facility	AZ	33.3417	-112.8897	NG	CC	RTID	N	1128760	11	4
55372	Harquahala Generating Project	AZ	33.47596	-113.113434	NG	CC	RTID	N	1311008	11	4
55129	Desert Basin	AZ	32.9042	-111.7889	NG	CC	RTID	N	1464694	11	4
59338	Sundevil Power Holdings - Gila River	AZ	32.975	-112.694444	NG	CC	RTID	N	1602451	11	4
117	West Phoenix	AZ	33.4417	-112.1583	NG	CC	RTID	N	1603916	11	4
58557	Mesquite Generating Station Block 1	AZ	33.345	-112.864167	NG	CC	RTID	N	1797783	11	4
55124	Griffith Energy LLC	AZ	35.054029	-114.133272	NG	CC	RTID	N	2411226	11	4
55306	Gila River Power Station	AZ	32.975	-112.6944	NG	CC	RTID	N	2566958	11	4
8068	Santan	AZ	33.3325	-111.7503	NG	CC	RTID	N	2794179	11	4
55481	Mesquite Generating Station Block 2	AZ	33.345047	-112.864227	NG	CC	RTID	N	3393145	11	4
55455	Red Hawk	AZ	33.334562	-112.840641	NG	CC	RTID	N	3684787	11	4
59233	Cogeneration 2	AZ	32.240833	-110.948333	NG	CS		Y	34038.27	11	4
56229	Cogeneration 1	AZ	32.229922	-110.952797	NG	CS		Y	47690.05	11	4
58199	Arizona State University CHP	AZ	33.417222	-111.928333	NG	CS		Y	50419	11	4
54694	Yuma Cogeneration Associates	AZ	32.728822	-114.654053	NG	CC		Y	61811	11	4
120	Yucca	AZ	32.7214	-114.7106	NG	ST		N	189393	11	4
55933	Tracy Combined Cycle Power Plant	CA	37.7107	-121.4906	NG	CC	DC	N	642715	11	5
55112	Sutter Energy Center	CA	39.053139	-121.695873	NG	CC	DC	N	1183721	11	5
57901	El Segundo Energy Center LLC	CA	33.910556	-118.425	NG	CC	DC	N	1688677	11	5
55084	Crockett Cogen Project	CA	38.0569	-122.2161	NG	CS	DC	Y	1802253	11	5
56532	Colusa Generating Station	CA	39.3661	-122.27	NG	CC	DC	N	2480830	11	5
56476	Gateway Generating Station	CA	38.0175	-121.7587	NG	CC	DC	N	3242261	11	5
55345	Otay Mesa Generating Project	CA	32.581481	-116.914969	NG	CC	DC	N	3650654	11	5
271	Pittsburg Power	CA	38.039168	-121.894469	NG	ST	MULTI	N	75895	11	5
345	Mandalay	CA	34.2067	-119.2511	NG	ST	ON	N	145751	11	5
330	El Segundo Power	CA	33.909804	-118.424172	NG	ST	ON	N	180713	11	5
350	Ormond Beach	CA	34.1292	-119.1689	NG	ST	ON	N	228795	11	5
356	AES Redondo Beach LLC	CA	33.8504	-118.395	NG	ST	ON	N	249851	11	5
302	Encina	CA	33.1361	-117.3364	NG	ST	ON	N	538642	11	5
335	AES Huntington Beach LLC	CA	33.6439	-117.9792	NG	ST	ON	N	912234	11	5
315	AES Alamitos LLC	CA	33.7688	-118.1009	NG	ST	ON	N	1369722	11	5
400	Haynes	CA	33.764741	-118.09913	NG	CC	ON	Y	2628045	11	5
260	Dynegy Moss Landing Power Plant	CA	36.804837	-121.782241	NG	CC	ON	N	4152565	11	5
377	Grayson	CA	34.1556	-118.2782	NG	CC	RTID	N	145360	11	5
331	Etiwanda Generating Station	CA	34.09118	-117.52663	NG	ST	RTID	N	212625	11	5
329	Coolwater	CA	34.8606	-116.8539	NG	CC	RTID	N	248282	11	5
55748	Los Esteros Critical Energy Center	CA	37.425	-121.9319	NG	CC	RTID	N	254382	11	5
389	El Centro	CA	32.802222	-115.54	NG	CC	RTID	N	1165974	11	5
57978	Lodi Energy Center	CA	38.088056	-121.3875	NG	CC	RTID	N	1316266	11	5
56078	Walnut Energy Center	CA	37.4878	-120.8956	NG	CC	RTID	N	1468675	11	5
408	Valley (CA)	CA	34.244991	-118.391327	NG	CC	RTID	Y	1560975	11	5
55295	Blythe Energy Inc	CA	33.6157	-114.6865	NG	CC	RTID	N	1687604	11	5
56046	Magnolia Power Project	CA	34.1786	-118.3153	NG	CC	RTID	N	1702201	11	5
56467	Russell City Energy Center	CA	37.63466	-122.13381	NG	CC	RTID	N	2247152	11	5
55853	Inland Empire Energy Center	CA	33.738839	-117.170369	NG	CS	RTID	N	2332292	11	5
55393	Metcalf Energy Center	CA	37.2207	-121.7457	NG	CC	RTID	N	2461413	11	5
55985	Palomar Energy	CA	33.1197	-117.117778	NG	CC	RTID	N	2598647	11	5
55182	Sunrise Power LLC	CA	35.2097	-119.585	NG	CC	RTID	N	2860595	11	5
55217	Los Medanos Energy Center	CA	38.030071	-121.873004	NG	CC	RTID	Y	3540552	11	5
55400	Elk Hills Power LLC	CA	35.280318	-119.470707	NG	CC	RTID	Y	3924149	11	5
55518	High Desert Power Plant	CA	34.5953	-117.3647	NG	CC	RTID	N	3964940	11	5
55970	Cosumnes	CA	38.338475	-121.123978	NG	CC	RTID	N	3980086	11	5
55656	"Pastoria Energy Facility, LLC"	CA	34.9556	-118.844	NG	CC	RTID	N	5097286	11	5
55333	Delta Energy Center	CA	38.0169	-121.8439	NG	CC	RTID	N	5187071	11	5
358	Mountainview Generating Station	CA	34.0818	-117.2418	NG	CC	RTID	N	6172663.1	11	5
55151	La Paloma Generating LLC	CA	35.2956	-119.5919	NG	CS	RTID	N	6558024	11	5
58593	DGS Central Utility Plant	CA	38.573889	-121.501389	NG	ST		Y	53	11	5
52099	Plant No 2 Orange County	CA	33.6433	-117.9556	NG	ST		Y	1379	11	5
50541	Harbor Cogen	CA	33.7771	-118.2303	NG	CC		N	13074	11	5
50748	Agnews Power Plant	CA	37.4058	-121.9272	NG	CC		N	15661	11	5
10350	Greenleaf 1 Power Plant	CA	39.052922	-121.696072	NG	CC		Y	15854	11	5
56356	Clearwater Power Plant	CA	33.8912	-117.6085	NG	CC		Y	17583	11	5
57916	Spreckels Sugar Company	CA	32.911111	-115.568056	NG	ST		Y	18408.66	11	5
10156	Fresno Cogen Partners	CA	36.617022	-120.099846	NG	CC		Y	28616	11	5
50876	Wheelabrator Norwalk Energy	CA	33.924898	-118.067853	NG	CC		Y	31761	11	5
10169	Carson Cogeneration	CA	33.8759	-118.2491	NG	CC		Y	35961	11	5
10034	Gilroy Power Plant	CA	37.0001	-121.5367	NG	CC		Y	61371	11	5
420	Broadway (CA)	CA	34.1254	-118.148	NG	ST		N	64791	11	5
10405	Kingsburg Cogen	CA	36.5397	-119.5794	NG	CC		Y	70505	11	5
50061	San Diego State University	CA	32.778225	-117.070114	NG	CC		Y	71452	11	5
58198	Parnassus Central Utility Plant	CA	37.760833	-122.456111	NG	CC		Y	72693	11	5
58083	Fullerton Mill CHP	CA	33.861667	-117.893056	NG	CC		Y	75765	11	5
10262	California Institute of Technology	CA	34.138467	-118.1256	NG	CC		Y	81059.02	11	5
399	Harbor	CA	33.7856	-118.2644	NG	CC		Y	88957	11	5
57122	UCI Facilities Management Central Plant	CA	33.6481	-117.8467	NG	CC		Y	111103	11	5
10623	Civic Center	CA	34.0564	-118.2436	NG	CC		Y	122096	11	5
57564	Algonquin Power Sanger LLC	CA	36.6842	-119.5522	NG	CC		Y	135389	11	5
50849	PE Berkeley	CA	37.870331	-122.26337	NG	CC		Y	164784.998	11	5
54749	Goal Line LP	CA	33.1185	-117.0995	NG	CC		Y	165136	11	5
50851	OLS Energy Camarillo	CA	34.161951	-119.047916	NG	CC		Y	173706	11	5
10810	NTC/MCRD Energy Facility	CA	32.7353	-117.2083	NG	CC		Y	181729	11	5
10478	Pitchess Cogen Station	CA	34.463896	-118.593991	NG	CC		Y	189014	11	5
57584	University of California San Diego	CA	32.8747	-117.2392	NG	CC		Y	203055	11	5
54410	Western Power & Steam Inc	CA	35.440539	-119.012861	NG	CC		Y	205849	11	5
52073	UCLA So Campus Cogen Project	CA	34.0692	-118.4439	NG	CC		Y	210941.999	11	5
54561	Jefferson Smurfit Santa Clara Mill	CA	37.368153	-121.943607	NG	CC		Y	211640	11	5
50850	OLS Energy Chino	CA	33.989626	-117.680911	NG	CC		Y	229402	11	5
7307	Redding Power	CA	40.507292	-122.423281	NG	CC		N	255735	11	5
10812	North Island Energy Facility	CA	32.70516	-117.189665	NG	CC		Y	304838	11	5
10811	Naval Station Energy Facility	CA	32.679269	-117.122447	NG	CC		Y	324928.65	11	5
7527	Carson Ice-Gen Project	CA	38.445681	-121.462387	NG	CC		Y	376060.002	11	5
10168	Cardinal Cogen	CA	37.429848	-122.176284	NG	CC		Y	394299	11	5
50270	ExxonMobil Santa Ynez Facility	CA	34.464819	-120.044365	NG	CC		Y	395042	11	5
7266	Woodland	CA	37.652602	-121.020397	NG	CC		N	448888	11	5
10294	King City Power Plant	CA	36.225	-121.1278	NG	CC		Y	511787	11	5
56298	Roseville Energy Park	CA	38.7928	-121.3811	NG	CC		N	538616	11	5
54912	Martinez Refining	CA	38.0169	-122.1117	NG	CC		Y	705908	11	5
7551	SCA Cogen 2	CA	38.530943	-121.400128	NG	CC		Y	729178	11	5
7552	SPA Cogen 3	CA	38.511	-121.4735	NG	CC		Y	760404	11	5
10342	Foster Wheeler Martinez	CA	38.0244	-122.0589	NG	CC		Y	774724	11	5
52109	Richmond Cogen	CA	37.9418	-122.3909	NG	CC		Y	800250	11	5
56026	Donald Von Raesfeld Power Plant	CA	37.3767	-121.9508	NG	CC		N	885049	11	5
55283	Front Range Power Plant	CO	38.6281	-104.7069	NG	CC	DC	N	1802796	11	6
10682	Brush Generation Facility	CO	40.2415	-103.631	NG	CC	RTID	N	64736	11	6
50707	JM Shafer Generating Station	CO	40.0986	-104.7736	NG	CC	RTID	Y	584017	11	6
55835	Rocky Mountain Energy Center	CO	40.0908	-104.5953	NG	CC	RTID	N	2452794	11	6
6112	Fort St Vrain	CO	40.2461	-104.8742	NG	CC	RTID	N	3694061	11	6
54372	University of Colorado	CO	40.00759	-105.269204	NG	CC		Y	7183.982	11	6
493	George Birdsall	CO	38.881389	-104.816944	NG	ST		N	8037	11	6
10755	Rifle Generating Station	CO	39.5173	-107.7299	NG	CC		Y	8416	11	6
55200	Arapahoe Combustion Turbine Project	CO	39.6692	-105.0018	NG	CC		N	192959	11	6
56998	Pueblo Airport Generating Station	CO	38.320833	-104.52639	NG	CC		N	1180870	11	6
55149	Lake Road Generating Plant	CT	41.872043	-71.895799	NG	CS	DC	N	4406248	11	7
55042	Bridgeport Energy Project	CT	41.1692	-73.1844	NG	CC	ON	N	2544680	11	7
55126	Milford Power Project	CT	41.224355	-73.099728	NG	CS	RTID	N	3072530	11	7
56798	Kleen Energy Systems Project	CT	41.553227	-72.596867	NG	CC	RTID	N	3323204.032	11	7
50801	Uncasville Mill	CT	41.4336	-72.0983	NG	ST		Y	9399	11	7
54236	Pfizer Groton Plant	CT	41.3315	-72.0786	NG	ST		Y	26939	11	7
52061	Hartford Hospital Cogeneration	CT	41.7631	-72.6733	NG	CC		Y	47263	11	7
58159	UCONN Cogen Facility	CT	41.809167	-72.254167	NG	CC		Y	116889.848	11	7
10567	Algonquin Windsor Locks	CT	41.9227	-72.6255	NG	CC		Y	119342.977	11	7
58084	"Kimberly Clark-Unit 1,2,3"	CT	41.558333	-73.413611	NG	CC		Y	129704	11	7
593	Edge Moor	DE	39.73886	-75.50384	NG	ST	ON	N	852310	11	8
7153	Hay Road	DE	39.7436	-75.5072	NG	CC	RTID	N	4596837.063	11	8
10030	NRG Energy Center Dover	DE	39.149549	-75.547335	NG	CC		Y	172864	11	8
643	Lansing Smith	FL	30.2686	-85.7003	NG	CC	MULTI	N	4505384.998	11	9
621	Turkey Point	FL	25.4356	-80.3308	NG	CC	MULTI	N	18371295.98	11	9
7380	Midulla Generating Station	FL	27.641667	-81.9625	NG	CC	OC	N	2430723.955	11	9
693	Vero Beach Municipal Power Plant	FL	27.633382	-80.377551	NG	CC	ON	N	18026	11	9
638	Suwannee River	FL	30.376389	-83.180556	NG	ST	ON	N	497448	11	9
8048	Anclote	FL	28.184444	-82.788611	NG	ST	ON	N	2433908	11	9
613	Lauderdale	FL	26.0686	-80.1984	NG	CC	ON	N	4435023.078	11	9
619	Riviera	FL	26.7653	-80.0525	NG	CC	ON	N	4826932.987	11	9
7873	H L Culbreath Bayside Power Station	FL	27.9072	-82.4231	NG	CC	ON	N	6796071	11	9
634	P L Bartow	FL	27.859535	-82.601759	NG	CC	ON	N	6799969.012	11	9
609	Cape Canaveral	FL	28.4698	-80.7644	NG	CC	ON	N	6845355.002	11	9
612	Fort Myers	FL	26.6967	-81.7831	NG	CC	ON	N	8620066	11	9
6042	Manatee	FL	27.6058	-82.3456	NG	CC	RC	N	7293430.975	11	9
620	Sanford	FL	28.8419	-81.3256	NG	CC	RC	N	9206252	11	9
6043	Martin	FL	27.0536	-80.5628	NG	CC	RC	N	10667947.02	11	9
7302	Hines Energy Complex	FL	27.788215	-81.869983	NG	CC	RC	N	11408933	11	9
6246	Putnam	FL	29.628338	-81.585084	NG	CC	RTID	N	591502.993	11	9
54466	Orlando Cogen LP	FL	28.442623	-81.412343	NG	CS	RTID	Y	906896	11	9
689	S O Purdom	FL	30.162304	-84.200673	NG	CC	RTID	N	1255733	11	9
55412	Osprey Energy Center Power Plant	FL	28.0525	-81.8083	NG	CC	RTID	N	1389853	11	9
688	Arvah B Hopkins	FL	30.4522	-84.4	NG	CC	RTID	N	1463943	11	9
56400	Treasure Coast Energy Center	FL	27.383889	-80.3775	NG	CC	RTID	N	1862817.007	11	9
55821	Curtis H Stanton Energy Center	FL	28.488246	-81.166944	NG	CC	RTID	N	1979161	11	9
676	C D McIntosh Jr	FL	28.0801	-81.9229	NG	CC	RTID	N	2201392	11	9
7846	Brandy Branch	FL	30.320556	-81.947222	NG	CC	RTID	N	3526963	11	9
7238	Cane Island	FL	28.2764	-81.533	NG	CC	RTID	N	3569609	11	9
564	Stanton Energy Center	FL	28.4822	-81.1678	NG	CC	RTID	N	6075238.911	11	9
56407	West County Energy Center	FL	26.6986	-80.3747	NG	CC	RTID	N	19764923.29	11	9
54658	Quantum Auburndale Power LP	FL	28.0542	-81.8058	NG	CC		Y	712	11	9
675	Larsen Memorial	FL	28.0797	-81.9228	NG	CC		N	2589	11	9
673	Tom G Smith	FL	26.612767	-80.0677	NG	CC		N	12946	11	9
50803	Seminole Mill	FL	30.4178	-81.5978	NG	ST		Y	77402	11	9
54423	Quantum Lake Power LP	FL	28.9158	-81.676	NG	CC		Y	137452	11	9
54424	Quantum Pasco Power LP	FL	28.374622	-82.188887	NG	CC		Y	171985	11	9
664	John R Kelly	FL	29.6461	-82.3208	NG	CC		N	242833	11	9
54365	Orange Cogeneration Facility	FL	27.87082	-81.825061	NG	CC		Y	319207.6	11	9
7294	Central Energy Plant	FL	28.4263	-81.5809	NG	CC		N	369445	11	9
50949	Hardee Power Station	FL	27.6364	-81.9636	NG	CC		N	371395	11	9
54426	Mulberry Cogeneration Facility	FL	27.8489	-81.8775	NG	CC		Y	388397	11	9
55242	Santa Rosa Energy Center	FL	30.5664	-87.115	NG	CC		Y	464851	11	9
7699	Tiger Bay	FL	27.746369	-81.849446	NG	CC		N	1072432	11	9
55040	Mid-Georgia Cogeneration Facility	GA	32.4856	-83.6039	NG	CC	RTID	Y	197047.996	11	10
55406	Effingham County Power Project	GA	32.277252	-81.284411	NG	CC	RTID	N	1448272	11	10
7946	Wansley Unit 9	GA	33.4083	-85.0403	NG	CC	RTID	N	1622571	11	10
55382	Thomas A Smith Energy Facility	GA	34.7094	-84.9175	NG	CC	RTID	N	1903665	11	10
7917	Chattahoochee Energy Facility	GA	33.4072	-85.0386	NG	CC	RTID	N	3020533	11	10
55965	Wansley Combined Cycle	GA	33.406385	-85.036988	NG	CC	RTID	N	5965153	11	10
56150	McIntosh Combined Cycle Facility	GA	32.3478	-81.1817	NG	CC	RTID	N	7328125	11	10
710	Jack McDonough	GA	33.8239	-84.4758	NG	CC	RTID	N	17021960	11	10
1077	Sutherland	IA	42.047333	-92.859444	NG	ST	RTID	N	30701	11	12
7985	Greater Des Moines	IA	41.5563	-93.5283	NG	CC	RTID	N	79271	11	12
8031	Emery Station	IA	43.094	-93.292222	NG	CC	RTID	N	1013806	11	12
1206	Summit Lake	IA	41.1136	-94.3472	NG	CC		N	6418	11	12
1046	Dubuque	IA	42.5031	-90.658611	NG	ST		N	11074	11	12
57953	Roquette America	IA	40.389167	-91.394167	NG	CC		Y	124405	11	12
57028	Langley Gulch Power Plant	ID	43.904444	-116.819722	NG	CC	RTID	N	1049876	11	13
55179	Rathdrum Power LLC	ID	47.7858	-116.9203	NG	CC	RTID	N	1201397	11	13
54579	Rupert Cogen Project	ID	42.6056	-113.6839	NG	CS		Y	74717.16	11	13
862	Grand Tower Energy Center LLC	IL	37.6577	-89.511161	NG	CC	ON	N	84335	11	14
55188	Cordova Energy	IL	41.712216	-90.279679	NG	CC	RTID	N	58537	11	14
55334	Holland Energy Facility	IL	39.223144	-88.758406	NG	CC	RTID	N	296933	11	14
55131	Kendall County Generation Facility	IL	41.4797	-88.2581	NG	CC	RTID	N	2242919	11	14
59884	Great Lakes Central Power Plant	IL	42.31	-87.83	NG	ST		Y	1835	11	14
972	Winnetka	IL	42.115589	-87.731025	NG	ST		N	2168	11	14
50326	Nalco	IL	41.800909	-88.197156	NG	CC		Y	13307.43	11	14
55216	Morris Cogeneration LLC	IL	41.411944	-88.332778	NG	CC		Y	564436.999	11	14
1007	Noblesville	IN	40.0969	-85.9714	NG	CC	RTID	N	316584	11	15
55259	Whiting Clean Energy	IN	41.6739	-87.4775	NG	CC	RTID	Y	1661476	11	15
55364	Sugar Creek Power	IN	39.3931	-87.5108	NG	CC	RTID	N	2421011	11	15
55502	Lawrenceburg Energy Facility	IN	39.0911	-84.8669	NG	CC	RTID	N	3316582	11	15
50316	Bunge North America East LLC	IN	40.846525	-84.933264	NG	ST		Y	8144	11	15
55096	Portside Energy	IN	41.6317	-87.1728	NG	CC		Y	281171	11	15
1336	Garden City	KS	37.9703	-100.8956	NG	ST	RTID	N	10147	11	16
1248	Hutchinson Energy Center	KS	38.0906	-97.874722	NG	ST	RTID	N	33888	11	16
1242	Murray Gill	KS	37.5967	-97.413611	NG	ST	RTID	N	89345	11	16
1233	Fort Dodge	KS	37.7328	-99.9497	NG	ST	RTID	N	257372	11	16
1240	Gordon Evans Energy Center	KS	37.7903	-97.521667	NG	ST	RTID	N	263000	11	16
1330	Wellington 1	KS	37.261372	-97.4057	NG	ST		N	80	11	16
1317	Pratt	KS	37.6359	-98.7433	NG	ST		N	2652	11	16
58192	Arkalon Ethanol LLC	KS	37.110556	-100.803611	NG	ST		Y	3926	11	16
58183	Prairie Horizon Agri Energy	KS	39.761111	-99.305833	NG	ST		Y	4006.1	11	16
58193	Bonanza BioEnergy LLC	KS	37.958611	-100.836111	NG	ST		Y	4345	11	16
1235	Great Bend - Sunflower	KS	38.41	-98.8689	NG	ST		N	4739	11	16
7013	East 12th Street	KS	37.2367	-96.9625	NG	ST		N	6404	11	16
1271	Coffeyville	KS	37.037344	-95.612689	NG	ST		N	14187	11	16
1230	Cimarron River	KS	37.1611	-100.7619	NG	ST		N	29621	11	16
1400	Teche	LA	29.822222	-91.5425	NG	ST	OC	N	122909	11	18
1396	Coughlin Power Station	LA	30.8439	-92.261111	NG	CC	OC	N	1635399	11	18
1394	Willow Glen	LA	30.2743	-91.1164	NG	ST	ON	N	1016421.022	11	18
8056	Waterford 1 & 2	LA	29.998884	-90.47684	NG	ST	ON	N	1226834.038	11	18
1402	Little Gypsy	LA	30.005067	-90.461694	NG	ST	ON	N	1423842	11	18
1409	Michoud	LA	30.0081	-89.9372	NG	ST	ON	N	2002948	11	18
1403	Nine Mile Point	LA	29.9472	-90.1458	NG	CC	ON	N	4103202	11	18
1416	Arsenal Hill	LA	32.5181	-93.7611	NG	ST	RC	N	30010	11	18
1417	Lieberman	LA	32.7047	-93.9597	NG	ST	RC	N	63315	11	18
6558	D G Hunter	LA	31.3207	-92.4613	NG	ST	RTID	N	44	11	18
1404	Sterlington	LA	32.7047	-92.0792	NG	CC	RTID	N	10814	11	18
1464	Big Cajun 1	LA	30.6739	-91.3556	NG	ST	RTID	N	21082	11	18
55404	Carville Energy LLC	LA	30.2294	-91.065	NG	CC	RTID	Y	2067416	11	18
55117	RS Cogen	LA	30.221	-93.2992	NG	CC	RTID	Y	3040172.02	11	18
56565	J Lamar Stall Unit	LA	32.51947	-93.760125	NG	CC	RTID	N	3302550	11	18
55620	Perryville Power Station	LA	32.6908	-92.0183	NG	CC	RTID	N	3430191	11	18
55467	Ouachita	LA	32.7061	-92.0683	NG	CC	RTID	N	3640642	11	18
55173	Acadia Energy Center	LA	30.428611	-92.413056	NG	CC	RTID	N	4515316	11	18
55419	Plaquemine Cogeneration Plant	LA	30.3217	-91.2347	NG	CC	RTID	Y	4585192.963	11	18
55089	Taft Cogeneration Facility	LA	29.9888	-90.4599	NG	CC	RTID	Y	5428430.946	11	18
1447	Minden	LA	32.604639	-93.294355	NG	ST		N	408	11	18
1455	Plaquemine	LA	30.273333	-91.2567	NG	ST		N	1110	11	18
1449	Morgan City	LA	29.691436	-91.188492	NG	ST		N	5134	11	18
50490	PPG Plant C Caustic	LA	30.2242	-93.2831	NG	ST		Y	11970	11	18
1439	Houma	LA	29.5806	-90.7225	NG	ST		N	14111	11	18
10301	Louisiana Sugar Refining	LA	30.0497	-90.6839	NG	ST		Y	16227	11	18
52031	Alliance Refinery	LA	29.6833	-89.975	NG	ST		N	31620.06	11	18
10319	Geismar	LA	30.2	-91	NG	ST		Y	34653.25	11	18
54512	Domino Sugar Arabi Plant	LA	29.9468	-90.0018	NG	ST		Y	42130.01	11	18
54518	Formosa Plastics	LA	30.4992	-91.1872	NG	ST		Y	94000	11	18
50846	Noranda Alumina LLC	LA	30.054	-90.6693	NG	ST		Y	132539	11	18
52175	CITGO Refinery Powerhouse	LA	30.1826	-93.3234	NG	ST		Y	213788.97	11	18
50152	Dow St Charles Operations	LA	29.9861	-90.4414	NG	CC		Y	1999979.003	11	18
55026	Dighton Power Plant	MA	41.8312	-71.1239	NG	CS	DC	N	915666	11	19
55212	ANP Blackstone Energy Project	MA	42.059876	-71.515811	NG	CS	DC	N	2148424	11	19
55211	ANP Bellingham Energy Project	MA	42.110577	-71.453468	NG	CS	DC	N	2235439	11	19
55317	Fore River Generating Station	MA	42.2422	-70.9661	NG	CC	DC	N	3901990	11	19
1682	Cleary Flood	MA	41.8653	-71.1061	NG	CC	MULTI	N	139723.999	11	19
1588	Mystic Generating Station	MA	42.3908	-71.0675	NG	CC	ON	N	1839368	11	19
55041	Berkshire Power	MA	42.0476	-72.6478	NG	CS	RTID	N	1189074.7	11	19
55079	Millennium Power	MA	42.112291	-72.015113	NG	CC	RTID	N	1827953	11	19
54225	Gillette SBMC	MA	42.3436	-71.0559	NG	ST		Y	1035	11	19
58185	Amherst College Co Gen	MA	42.371667	-72.512222	NG	ST		Y	1056	11	19
50041	Norton Powerhouse	MA	42.309555	-71.805218	NG	ST		Y	11297	11	19
50087	Univ of Massachusetts Medical Center	MA	42.279015	-71.759772	NG	ST		Y	21244	11	19
10029	General Electric Aircraft Engines	MA	42.45	-70.9739	NG	ST		Y	36483	11	19
10883	Medical Area Total Energy Plant	MA	42.33685	-71.10815	NG	ST		Y	64477.84	11	19
54805	Milford Power LP	MA	42.129361	-71.511496	NG	CC		N	465680	11	19
10726	Masspower	MA	42.1575	-72.5225	NG	CC		Y	781932	11	19
1595	Kendall Square Station	MA	42.3633	-71.0792	NG	CC		Y	1576895.011	11	19
1553	Gould Street	MD	39.2663	-76.6047	NG	ST	ON	N	17572	11	20
56038	UMCP CHP Plant	MD	38.985844	-76.935478	NG	ST		Y	12998	11	20
1559	Riverside (MD)	MD	39.2369	-76.5133	NG	ST		N	16617	11	20
54795	Domino Sugar Baltimore	MD	39.2744	-76.5956	NG	ST		Y	49268	11	20
54832	Brandywine Power Facility	MD	38.6681	-76.8678	NG	CC		Y	955013.497	11	20
55068	Maine Independence Station	ME	44.8242	-68.7094	NG	CC	RTID	N	1111646	11	21
55294	Westbrook Energy Center Power Plant	ME	43.6575	-70.375	NG	CC	RTID	N	1838911	11	21
55100	"Rumford Power, Inc"	ME	44.5303	-70.5219	NG	CC		N	401026	11	21
6035	Greenwood (MI)	MI	43.1056	-82.6964	NG	ST	RC	N	163645.996	11	22
10745	Midland Cogeneration Venture	MI	43.5861	-84.2242	NG	CC	RC	Y	3198875.71	11	22
55270	Jackson Power Facility	MI	42.2488	-84.3767	NG	CC	RTID	N	574250	11	22
55297	New Covert Generating Facility	MI	42.32238	-86.29368	NG	CC	RTID	N	1608425	11	22
55087	Zeeland Generating Station	MI	42.8206	-85.9975	NG	CC	RTID	N	1847303	11	22
58330	The Andersons Albion Ethanol LLC	MI	42.256111	-84.788333	NG	ST		Y	9.7	11	22
58052	Battle Creek Mill	MI	42.315833	-85.186944	NG	ST		Y	2915	11	22
58196	Cargill Salt Hersey	MI	43.834167	-85.355833	NG	ST		Y	5060.49	11	22
58161	Western Michigan University Power Plant	MI	42.28	-85.606389	NG	CC		Y	73755.89	11	22
58066	"PCA, Filer City Mill"	MI	44.213333	-86.286667	NG	ST		N	80810	11	22
50431	University of Michigan	MI	42.281167	-83.734617	NG	CC		Y	161181	11	22
10819	Ada Cogeneration LP	MI	42.962672	-85.494071	NG	CC		Y	202987	11	22
58427	Lansing BWL REO Town Plant	MI	42.719722	-84.551667	NG	CC		Y	474085	11	22
54915	Michigan Power LP	MI	43.9375	-86.425	NG	CC		Y	1012073	11	22
1904	Black Dog	MN	44.8108	-93.2501	NG	CC	OC	N	1842094.031	11	23
1927	Riverside (MN)	MN	45.0203	-93.2753	NG	CC	ON	N	1007621.999	11	23
1912	High Bridge	MN	44.9314	-93.1117	NG	CC	ON	N	1016760	11	23
55010	LSP-Cottage Grove LP	MN	44.7956	-92.9119	NG	CC	RTID	Y	139477	11	23
56164	Faribault Energy Park	MN	44.3356	-93.290556	NG	CC	RTID	N	329751.002	11	23
56104	Mankato Energy Center	MN	44.1988	-94.003	NG	CC	RTID	N	355278.002	11	23
1888	Fox Lake	MN	43.6728	-94.7075	NG	ST		N	880	11	23
2001	New Ulm	MN	44.3159	-94.4581	NG	ST		Y	2439	11	23
1980	Hutchinson Plant #1	MN	44.895741	-94.368433	NG	CS		N	7714	11	23
6358	Hutchinson Plant #2	MN	44.888881	-94.349348	NG	CC		N	13248	11	23
54262	Saint Marys Hospital Power Plant	MN	44.09785	-92.479815	NG	CC		Y	53571.16	11	23
2079	Hawthorn	MO	39.1306	-94.4778	NG	CC	ON	N	3400862.022	11	24
7604	St Francis Energy Facility	MO	36.5852	-90.1779	NG	CS	RTID	N	344467	11	24
55178	Dogwood Energy Facility	MO	38.7931	-94.3006	NG	CC	RTID	N	1121523	11	24
7296	State Line Combined Cycle	MO	37.0659	-94.614	NG	CC	RTID	N	1701307	11	24
56309	Trigen St. Louis	MO	38.6359	-90.1809	NG	CS		Y	17239.81	11	24
55706	Choctaw County	MS	33.2881	-89.4201	NG	CC	DC	N	2868988	11	25
6073	Victor J Daniel Jr	MS	30.5322	-88.5553	NG	CC	MULTI	N	10882953.97	11	25
2050	Baxter Wilson	MS	32.2831	-90.9306	NG	ST	ON	N	24831	11	25
8054	Gerald Andrus	MS	33.35	-91.1167	NG	ST	ON	N	44858	11	25
2053	Rex Brown	MS	32.356954	-90.21297	NG	ST	RC	N	63508	11	25
55694	Quantum Choctaw Power LLC	MS	33.3792	-89.2089	NG	CC	RTID	N	837513	11	25
2070	Moselle	MS	31.528	-89.3004	NG	CC	RTID	N	859392	11	25
57037	Kemper County IGCC Project	MS	32.654722	-88.762222	NG	CC	RTID	N	1137607	11	25
55269	TVA Southaven Combined Cycle	MS	34.9939	-90.0378	NG	CC	RTID	N	2197860	11	25
55063	Batesville Generation Facility	MS	34.3356	-89.9275	NG	CC	RTID	N	2323056	11	25
55197	Caledonia	MS	33.6464	-88.2717	NG	CC	RTID	N	2717829	11	25
55218	Hinds Energy Facility	MS	32.378969	-90.219906	NG	CC	RTID	N	2746899	11	25
55220	Attala	MS	33.0147	-89.6753	NG	CC	RTID	N	3232686	11	25
55451	Magnolia Power Plant	MS	34.835	-89.2026	NG	CC	RTID	N	4079143	11	25
2059	L L Wilkins	MS	34.1845	-90.562662	NG	CS		N	223	11	25
2067	Yazoo	MS	32.8458	-90.4211	NG	CC		N	226	11	25
2062	Henderson	MS	33.517315	-90.209661	NG	ST		N	4245	11	25
2048	Sweatt	MS	32.2925	-88.7461	NG	ST		N	6171	11	25
58697	L V Sutton Combined Cycle	NC	34.283056	-77.985278	NG	CC	RC	N	3866319.991	11	27
58215	Lee Combined Cycle Plant	NC	35.373611	-78.089444	NG	CC	RC	N	5730722.06	11	27
7826	Rowan	NC	35.7314	-80.6019	NG	CC	RTID	N	2675808.02	11	27
2720	Buck	NC	35.7133	-80.3767	NG	CC	RTID	N	3701242	11	27
2723	Dan River	NC	36.4862	-79.7208	NG	CC	RTID	N	3798708	11	27
7805	Sherwood H Smith Jr Energy Complex	NC	34.8392	-79.7406	NG	CC	RTID	N	7037121.023	11	27
1016	Butler-Warner Generation Plant	NC	35.0986	-78.8294	NG	CC		N	12060	11	27
2226	Canaday	NE	40.6942	-99.7011	NG	ST	ON	N	3231	11	29
2236	Fairbury	NE	40.133872	-97.184286	NG	ST		N	103	11	29
7887	Terry Bundy Generating Station	NE	40.909653	-96.613086	NG	CC		N	22131	11	29
8000	Beatrice	NE	40.330184	-96.808153	NG	CC		N	178509	11	29
55170	Granite Ridge	NH	42.9042	-71.4261	NG	CC	RTID	N	3534364	11	30
10308	Sayreville Cogeneration Facility	NJ	40.439	-74.3444	NG	CC	DC	N	1401194.1	11	31
50006	Linden Cogen Plant	NJ	40.6322	-74.2156	NG	CC	DC	Y	4618093.988	11	31
2384	Deepwater	NJ	39.6831	-75.5083	NG	ST	ON	N	662	11	31
2411	PSEG Sewaren Generating Station	NJ	40.5558	-74.2469	NG	ST	ON	N	34182	11	31
56963	West Deptford Energy Station	NJ	39.8414	-75.2214	NG	CC	RTID	N	357976	11	31
55239	Red Oak Power LLC	NJ	40.448674	-74.348879	NG	CC	RTID	N	5428446	11	31
2406	PSEG Linden Generating Station	NJ	40.6217	-74.2072	NG	CC	RTID	N	5453207.907	11	31
2398	Bergen Generating Station	NJ	40.8375	-74.0244	NG	CC	RTID	N	5826468.982	11	31
10224	Merck Rahway Power Plant	NJ	40.615616	-74.26529	NG	ST		Y	30404	11	31
10061	MARS Chocolate North American LLC	NJ	40.8625	-74.825	NG	CC		Y	55837.08	11	31
50799	Parlin Power Plant	NJ	40.460717	-74.327161	NG	CC		Y	66088	11	31
10805	Kenilworth Energy Facility	NJ	40.6781	-74.2744	NG	CC		Y	140797.001	11	31
50852	Elmwood Energy Holdings LLC	NJ	40.905337	-74.130448	NG	CC		N	149382.91	11	31
10099	Pedricktown Cogeneration Company LP	NJ	39.7668	-75.4238	NG	CC		N	225068.126	11	31
50561	Eagle Point Power Generation	NJ	39.8746	-75.1592	NG	CC		N	347225	11	31
50385	Newark Bay Cogeneration Partnership LP	NJ	40.7197	-74.13	NG	CC		N	401632.38	11	31
10751	Camden Plant Holding LLC	NJ	39.9175	-75.1192	NG	CC		N	424957	11	31
50497	Bayonne Plant Holding LLC	NJ	40.655325	-74.112442	NG	CC		Y	680658.7	11	31
56458	Hobbs Generating Station	NM	32.728333	-103.309444	NG	CC	DC	N	2705124	11	32
55210	Afton Generating Station	NM	32.114185	-106.846483	NG	CC	IDHB	N	545740	11	32
2450	Reeves	NM	35.171	-106.6019	NG	ST	RTID	N	72579	11	32
2446	Maddox	NM	32.714224	-103.301469	NG	ST	RTID	N	392254	11	32
2454	Cunningham	NM	32.7131	-103.3533	NG	ST	RTID	N	768836	11	32
2444	Rio Grande	NM	31.8047	-106.5472	NG	ST	RTID	N	770001	11	32
55343	Luna Energy Facility	NM	32.299349	-107.7834	NG	CC	RTID	N	2052629	11	32
50906	Ford Utilities Center	NM	35.084078	-106.625191	NG	ST		Y	1064	11	32
54667	Chino Mines	NM	32.6956	-108.1225	NG	CC		N	29640	11	32
2465	Animas	NM	36.725138	-108.19202	NG	CC		N	137532	11	32
55977	Bluffview	NM	36.716628	-108.215282	NG	CC		N	328679	11	32
55841	Silverhawk	NV	36.4078	-114.9606	NG	CC	DC	N	1047368	11	33
55077	Desert Star Energy Center	NV	35.788889	-114.994167	NG	CC	DC	N	1539121	11	33
55514	Apex Generating Station	NV	36.415999	-114.960916	NG	CC	DC	N	1653509	11	33
55687	Higgins Generating Station	NV	35.6139	-115.3561	NG	CC	DC	N	2017933	11	33
7082	Harry Allen	NV	36.430554	-114.902405	NG	CC	DC	N	3146306	11	33
55322	Chuck Lenzie Generating Station	NV	36.383719	-114.921779	NG	CC	DC	N	6075067	11	33
2330	Fort Churchill	NV	39.1281	-119.1322	NG	ST	RC	N	174754	11	33
2336	Tracy	NV	39.5625	-119.525	NG	CC	RC	N	3975761	11	33
2322	Clark (NVE)	NV	36.0875	-115.0507	NG	CC	RTID	N	389013	11	33
10761	Las Vegas Generating Station	NV	36.2319	-115.1222	NG	CC		Y	3	11	33
54349	Nevada Cogen Associates 2 Black Mountain	NV	36.2253	-114.8783	NG	CC		Y	723401	11	33
54350	Nevada Cogen Assoc#1 GarnetVly	NV	36.343229	-114.920686	NG	CC		Y	726789	11	33
54271	Saguaro Power	NV	36.0417	-115.0117	NG	CC		Y	758707.001	11	33
56234	Caithness Long Island Energy Center	NY	40.8142	-72.9403	NG	CC	DC	N	2397688.007	11	34
55405	Athens Generating Plant	NY	42.2728	-73.8492	NG	CC	DC	N	2658650	11	34
57664	Astoria Energy II	NY	40.781321	-73.896618	NG	CC	DC	N	3174540.01	11	34
55375	Astoria Energy	NY	40.7825	-73.8964	NG	CC	DC	N	3499124.053	11	34
56196	500MW CC	NY	40.7889	-73.9069	NG	CC	HBID	N	3307582.007	11	34
56259	Empire Generating Co  LLC	NY	42.625239	-73.750021	NG	CC	IDHB	Y	2725094.993	11	34
2490	Arthur Kill Generating Station	NY	40.591564	-74.200035	NG	ST	ON	N	1097793	11	34
2511	E F Barrett	NY	40.616689	-73.647881	NG	ST	ON	N	1428220.985	11	34
2625	Bowline Point	NY	41.2044	-73.9689	NG	ST	ON	N	1479640.955	11	34
2500	Ravenswood	NY	40.759167	-73.946111	NG	CC	ON	N	4756479.07	11	34
10725	Selkirk Cogen	NY	42.5744	-73.8592	NG	CC	RTID	Y	1201938	11	34
2539	Bethlehem Energy Center	NY	42.594196	-73.763752	NG	CC	RTID	N	4286736	11	34
54547	Sithe Independence Station	NY	43.495	-76.4511	NG	CC	RTID	Y	5996363.5	11	34
10617	CH Resources Beaver Falls	NY	43.8861	-75.4342	NG	CC		Y	1151	11	34
54592	Massena Energy Facility	NY	44.9503	-74.8928	NG	CC		N	1682	11	34
54593	Batavia Power Plant	NY	42.9828	-78.1592	NG	CC		Y	10782	11	34
50744	Sterling Power Plant	NY	43.080338	-75.600963	NG	CC		N	22483	11	34
50449	Indeck Silver Springs Energy Center	NY	42.6544	-78.0772	NG	CC		Y	37226.66	11	34
58157	University of Rochester	NY	43.123889	-77.628889	NG	ST		Y	38683.6	11	34
54131	Fortistar North Tonawanda	NY	43.0483	-78.8539	NG	CC		Y	38981	11	34
10621	CH Resources Syracuse	NY	43.0664	-76.2144	NG	CC		N	43288	11	34
54034	Rensselaer Cogen	NY	42.625325	-73.749955	NG	CC		N	48028	11	34
2682	S A Carlson	NY	42.0933	-79.2478	NG	ST		N	49418	11	34
50450	Indeck Oswego Energy Center	NY	43.471745	-76.493474	NG	CC		Y	65294	11	34
50743	Starrett City Cogen Facility	NY	40.6492	-73.8792	NG	ST		Y	67174	11	34
50451	Indeck Yerkes Energy Center	NY	42.9671	-78.9182	NG	CC		Y	67549	11	34
7784	Allegany Cogen	NY	42.5027	-78.0686	NG	CC		N	96844	11	34
50978	Carr Street Generating Station	NY	43.06132	-76.08239	NG	CC		N	97707	11	34
10521	Lederle Laboratories	NY	41.0772	-74.0181	NG	CC		Y	127900.316	11	34
56188	Pinelawn Power LLC	NY	40.736611	-73.388424	NG	CC		N	134961.004	11	34
50368	Cornell University Central Heat	NY	42.4428	-76.4764	NG	CC		Y	202506.996	11	34
54574	Saranac Facility	NY	44.7132	-73.4557	NG	CC		N	224631	11	34
54076	Indeck Olean Energy Center	NY	42.085944	-78.45425	NG	CC		Y	332762.002	11	34
52056	Nassau Energy Corp	NY	40.7264	-73.5892	NG	CC		Y	343145.261	11	34
54041	Lockport Energy Associates LP	NY	43.161947	-78.744971	NG	CC		Y	388403.7	11	34
50292	Bethpage Power Plant	NY	40.7469	-73.4994	NG	CC		N	433757	11	34
54114	Kennedy International Airport Cogen	NY	40.6417	-73.7778	NG	CC		Y	734159.003	11	34
50458	Indeck Corinth Energy Center	NY	43.25	-73.8125	NG	CC		Y	876699.005	11	34
54914	Brooklyn Navy Yard Cogeneration	NY	40.699357	-73.976392	NG	CC		Y	2051954.973	11	34
2917	Hamilton (OH)	OH	39.4098	-84.5543	NG	ST	ON	N	55072	11	35
55701	Fremont Energy Center	OH	41.377116	-83.161388	NG	CC	RTID	N	2311180.98	11	35
55503	AEP Waterford Facility	OH	39.5333	-81.7178	NG	CC	RTID	N	3923031	11	35
55350	Dresden Energy Facility	OH	40.0928	-82.0276	NG	CC	RTID	N	3933693	11	35
55397	Washington Energy Facility	OH	39.58	-81.6564	NG	CC	RTID	N	4345118	11	35
55736	Hanging Rock Energy Facility	OH	38.5731	-82.7833	NG	CC	RTID	N	7951652	11	35
58263	Bay View Cogeneration Facility	OH	41.688333	-83.484722	NG	ST		Y	100	11	35
57908	Central Utility Plant Cincinnati	OH	39.134533	-84.509419	NG	CC		Y	61093.51	11	35
55990	Ashtabula	OH	41.890026	-80.7612	NG	CC		Y	141306	11	35
2951	Horseshoe Lake	OK	35.50866	-97.17969	NG	ST	MULTI	N	776186	11	36
8059	Comanche (OK)	OK	34.5431	-98.3244	NG	CC	RC	N	487999	11	36
2956	Seminole (OK)	OK	34.96645	-96.7258	NG	ST	RC	N	1010798	11	36
2965	Tulsa	OK	36.116492	-95.990974	NG	ST	RTID	N	196857.996	11	36
4940	Riverside (OK)	OK	35.9978	-95.9567	NG	ST	RTID	N	271597	11	36
3008	Mooreland	OK	36.43725	-99.22543	NG	ST	RTID	N	272662	11	36
2964	Southwestern	OK	35.1009	-98.3524	NG	ST	RTID	N	323108	11	36
2953	Mustang	OK	35.46988	-97.67498	NG	ST	RTID	N	377304	11	36
3006	Anadarko Plant	OK	35.0847	-98.23	NG	CS	RTID	N	675041	11	36
7757	Chouteau	OK	36.222058	-95.277064	NG	CC	RTID	N	2341002	11	36
55457	McClain Energy Facility	OK	35.29774	-97.58985	NG	CC	RTID	N	2469139	11	36
55501	Kiamichi Energy Facility	OK	34.6831	-95.9349	NG	CC	RTID	N	2819111	11	36
55225	Oneta Energy Center	OK	36.0119	-95.6967	NG	CC	RTID	N	2979529	11	36
55146	Green Country Energy LLC	OK	35.9833	-95.9346	NG	CC	RTID	N	3127419	11	36
55463	Redbud Power Plant	OK	35.6856	-97.2264	NG	CC	RTID	N	5950275	11	36
2963	Northeastern	OK	36.4317	-95.7008	NG	CC	RTID	N	8507201.03	11	36
3000	Boomer Lake Station	OK	36.1438	-97.0681	NG	ST		N	972	11	36
7546	Ponca City	OK	36.71979	-97.085758	NG	CC		N	25822	11	36
50558	Oklahoma Cogeneration Project	OK	35.439722	-97.625	NG	CC		Y	95443	11	36
8073	Beaver	OR	46.172401	-123.17392	NG	CC	RTID	N	205284.997	11	37
7931	Coyote Springs II	OR	45.848039	-119.673965	NG	CC	RTID	N	1493933	11	37
56227	Port Westward	OR	46.17894	-123.172039	NG	CC	RTID	N	1943131	11	37
55103	Klamath Cogeneration Plant	OR	42.173889	-121.810556	NG	CC	RTID	Y	2184907	11	37
54761	Hermiston Generating Plant	OR	45.8042	-119.37	NG	CC	RTID	Y	2315061	11	37
55328	Hermiston Power Partnership	OR	45.794046	-119.313323	NG	CC	RTID	N	3100584	11	37
54950	Univ of Oregon Central Power Station	OR	44.048333	-123.073889	NG	CC		Y	35316.73	11	37
57653	Oregon State University Energy Center	OR	44.564333	-123.289089	NG	CC		Y	41502	11	37
7350	Coyote Springs	OR	45.847998	-119.67392	NG	CC		Y	1273703	11	37
55976	Hunterstown Power Plant	PA	39.8725	-77.1672	NG	CC	DC	N	3834528	11	38
3096	Brunot Island	PA	40.464851	-80.043761	NG	CC	RTID	N	35594	11	38
55193	Ontelaunee Energy Center	PA	40.4219	-75.9356	NG	CC	RTID	N	2503963	11	38
55524	York Energy Center	PA	39.7375	-76.306666	NG	CC	RTID	N	2537263.961	11	38
55231	Liberty Electric Power Plant	PA	39.8614	-75.3358	NG	CC	RTID	N	3751680	11	38
55710	FirstEnergy Allegheny Energy Units 3 4 & 5	PA	40.545278	-79.768611	NG	CC	RTID	N	3929576	11	38
55667	Lower Mount Bethel Energy	PA	40.801924	-75.107563	NG	CC	RTID	N	4202458	11	38
55516	Fayette Energy Facility	PA	39.8592	-79.9182	NG	CC	RTID	N	4461553	11	38
55690	Bethlehem Power Plant	PA	40.6175	-75.3147	NG	CC	RTID	N	4702961.988	11	38
55801	FPL Energy Marcus Hook LP	PA	39.807038	-75.421606	NG	CC	RTID	Y	5089992.3	11	38
55337	PPL Ironwood LLC	PA	40.3509	-76.3658	NG	CC	RTID	N	5208269	11	38
55298	Fairless Energy Center	PA	40.1475	-74.7411	NG	CC	RTID	N	6995551	11	38
50463	Procter & Gamble Mehoopany Mill	PA	41.574259	-76.043233	NG	ST		Y	5226	11	38
54693	York Generation Company LLC	PA	39.985641	-76.676158	NG	CC		N	11465	11	38
54250	Newman (PA)	PA	40.013993	-75.05283	NG	ST		Y	12401	11	38
54333	Bucknell University	PA	40.955015	-76.878843	NG	CC		Y	36705	11	38
3176	Hunlock Power Station	PA	41.200556	-76.07	NG	CC		N	815981	11	38
54785	Grays Ferry Cogeneration	PA	39.942219	-75.188069	NG	CC		Y	912680.004	11	38
3236	Manchester Street	RI	41.8167	-71.4042	NG	CC	ON	N	1744553.956	11	39
55107	Entergy Rhode Island State Energy LP	RI	41.8017	-71.5186	NG	CC	RTND	N	1625082	11	39
54056	Pawtucket Power Associates	RI	41.861531	-71.406856	NG	CC		N	3487.15	11	39
54324	Ocean State Power II	RI	42.0099	-71.6701	NG	CC		N	559769	11	39
51030	Ocean State Power	RI	42.009722	-71.668909	NG	CC		N	593995	11	39
55048	Tiverton Power Plant	RI	41.6422	-71.1706	NG	CC		N	1453759	11	39
3295	Urquhart	SC	33.435	-81.9111	NG	CC	ON	N	1906473.984	11	40
55386	Columbia Energy Center (SC)	SC	33.8697	-81.0178	NG	CC	RTID	Y	578782.513	11	40
7834	John S Rainey	SC	34.347778	-82.774444	NG	CC	RTID	N	3468024	11	40
55927	Jasper	SC	32.3594	-81.1242	NG	CC	RTID	N	4243527.949	11	40
55043	Cherokee County Cogen	SC	35.0727	-81.613	NG	CC		Y	333932.2	11	40
56610	Deer Creek Station	SD	44.290833	-96.526667	NG	CC	DC	N	358799	11	41
7845	Lagoon Creek	TN	35.6578	-89.3964	NG	CC	RTID	N	2112113.963	11	42
3405	John Sevier	TN	36.3767	-82.9639	NG	CC	RTID	N	3333750.997	11	42
55091	Midlothian Energy Facility	TX	32.4302	-97.0537	NG	CS	DC	N	5518344	11	43
3459	Sabine	TX	30.0242	-93.878	NG	ST	MULTI	N	4662233.032	11	43
3601	Sim Gideon	TX	30.1456	-97.2708	NG	ST	OC	N	143130	11	43
3491	Handley	TX	32.7283	-97.2192	NG	ST	OC	N	274967	11	43
56806	Cedar Bayou 4	TX	29.751645	-94.92312	NG	CC	OC	N	1048105	11	43
3460	Cedar Bayou	TX	29.75	-94.9256	NG	ST	OC	N	1313920	11	43
4939	Barney M Davis	TX	27.6064	-97.3117	NG	CC	OC	N	1793002	11	43
55154	Lost Pines 1 Power Project	TX	30.1478	-97.2714	NG	CC	OC	N	3370109	11	43
3576	Ray Olinger	TX	33.068055	-96.452481	NG	ST	ON	N	27552	11	43
3507	Trinidad (TX)	TX	32.124519	-96.101277	NG	ST	ON	N	36684	11	43
6243	Dansby	TX	30.7217	-96.4608	NG	ST	ON	N	74919	11	43
3504	Stryker Creek	TX	31.93985	-94.989834	NG	ST	ON	N	176266	11	43
3490	Graham	TX	33.1344	-98.6117	NG	ST	ON	N	197743	11	43
3453	Mountain Creek	TX	32.7231	-96.9358	NG	ST	ON	N	206023	11	43
3452	Lake Hubbard	TX	32.8358	-96.5458	NG	ST	ON	N	264099.004	11	43
3548	Decker Creek	TX	30.3033	-97.6128	NG	ST	ON	N	335372	11	43
3441	Nueces Bay	TX	27.819412	-97.419203	NG	CC	ON	N	1522070	11	43
52120	Dow Chemical Texas Operation	TX	28.991289	-95.407481	NG	CC	ON	Y	2409707.96	11	43
3476	Knox Lee	TX	32.3766	-94.6415	NG	ST	RC	N	178850	11	43
3612	V H Braunig	TX	29.2567	-98.3825	NG	ST	RC	N	261536.001	11	43
3611	O W Sommers	TX	29.308056	-98.3242	NG	ST	RC	N	470944.004	11	43
3457	Lewis Creek	TX	30.4356	-95.5214	NG	ST	RC	N	1450291	11	43
7512	Arthur Von Rosenberg	TX	29.257046	-98.384045	NG	CC	RC	N	2183187	11	43
4266	Spencer	TX	33.1975	-97.1061	NG	ST	RTID	N	4579	11	43
3464	Greens Bayou	TX	29.822201	-95.219429	NG	ST	RTID	N	69526	11	43
3469	T H Wharton	TX	29.9417	-95.5306	NG	CC	RTID	N	270735	11	43
3484	Nichols	TX	35.283357	-101.746423	NG	ST	RTID	N	476760	11	43
56349	Quail Run Energy Center	TX	31.8414	-102.315	NG	CC	RTID	N	630858	11	43
3443	Victoria	TX	28.7883	-97.01	NG	CC	RTID	N	635176	11	43
54817	Johnson County	TX	32.3994	-97.4078	NG	CC	RTID	N	732504.002	11	43
56708	CFB Power Plant	TX	28.650278	-96.539722	NG	ST	RTID	N	767414	11	43
3478	Wilkes	TX	32.848163	-94.547986	NG	ST	RTID	N	774009.997	11	43
55664	Harrison County Power Project	TX	32.3958	-94.4367	NG	CC	RTID	N	930362	11	43
7900	Sand Hill	TX	30.2098	-97.6129	NG	CC	RTID	N	941895	11	43
52088	Texas City Power Plant	TX	29.378697	-94.943829	NG	CC	RTID	Y	1036239	11	43
3485	Plant X	TX	34.1661	-102.4114	NG	ST	RTID	N	1160700.041	11	43
3482	Jones	TX	33.5239	-101.7392	NG	ST	RTID	N	1253727.97	11	43
58001	Panda Temple Power Station	TX	31.055833	-97.317222	NG	CC	RTID	N	1377424	11	43
55545	Hidalgo Energy Center	TX	26.34172	-98.175759	NG	CC	RTID	N	1571009	11	43
56350	Colorado Bend Energy Center	TX	29.2878	-96.0683	NG	CC	RTID	N	1592158	11	43
55223	Ennis Power Company LLC	TX	32.32	-96.675	NG	CC	RTID	N	1792415	11	43
55176	Eastman Cogeneration Facility	TX	32.4481	-94.6903	NG	CC	RTID	Y	1956704.53	11	43
55206	Corpus Christi Energy Center	TX	27.8139	-97.4283	NG	CC	RTID	Y	2008063.002	11	43
54676	Oyster Creek Unit VIII	TX	28.9802	-95.342	NG	CC	RTID	Y	2166018.998	11	43
55065	Mustang Station	TX	32.9728	-102.7417	NG	CC	RTID	N	2213704	11	43
55144	Hays Energy Project	TX	29.7806	-97.9894	NG	CS	RTID	N	2399094	11	43
55086	Gregory Power Facility	TX	27.88929	-97.258417	NG	CC	RTID	Y	2415807	11	43
55357	Brazos Valley Generating Facility	TX	29.4731	-95.6244	NG	CC	RTID	N	2417799	11	43
55062	Tenaska Frontier Generation Station	TX	30.5924	-95.9178	NG	CC	RTID	N	2483769	11	43
55098	Frontera Energy Center	TX	26.208	-98.3992	NG	CC	RTID	N	2678531	11	43
3456	Newman	TX	31.983587	-106.431777	NG	CC	RTID	N	2761309.592	11	43
55120	SRW Cogen LP	TX	30.054478	-93.757435	NG	CC	RTID	Y	2826441	11	43
50815	Optim Energy Altura Cogen LLC	TX	29.8161	-95.10773	NG	CC	RTID	Y	2988908	11	43
55137	Rio Nogales Power Project	TX	29.593056	-97.973215	NG	CC	RTID	N	3022355	11	43
55313	Ingleside Cogeneration	TX	27.882778	-97.242778	NG	CC	RTID	Y	3051751.002	11	43
55168	Bastrop Energy Center	TX	30.1458	-97.55	NG	CC	RTID	N	3071963	11	43
55327	Baytown Energy Center	TX	29.7731	-94.9019	NG	CC	RTID	Y	3461077	11	43
55132	Tenaska Gateway Generating Station	TX	32.017826	-94.619743	NG	CC	RTID	N	3472762	11	43
10554	Formosa Utility Venture Ltd	TX	28.6917	-96.5417	NG	CC	RTID	Y	3635529.005	11	43
55123	Magic Valley Generating Station	TX	26.3403	-98.19	NG	CC	RTID	N	3715419	11	43
55172	Bosque County Peaking	TX	31.8594	-97.3586	NG	CC	RTID	N	3743591	11	43
55320	Wise County Power LLC	TX	33.0583	-97.9103	NG	CC	RTID	N	3763530.1	11	43
55139	Wolf Hollow I LP	TX	32.33422	-97.731686	NG	CC	RTID	N	3815433	11	43
55226	Freestone Energy Center	TX	31.8907	-96.1131	NG	CC	RTID	N	4087206	11	43
55047	Pasadena Cogeneration	TX	29.72475	-95.176479	NG	CC	RTID	Y	4156219	11	43
55470	Green Power 2	TX	29.378097	-94.932773	NG	CC	RTID	Y	4203596.996	11	43
55153	Guadalupe Generating Station	TX	29.6244	-98.1419	NG	CC	RTID	N	4451509	11	43
55215	Odessa Ector Generating Station	TX	31.8403	-102.3264	NG	CC	RTID	N	4782049	11	43
55358	Cottonwood Energy Project	TX	30.2588	-93.7353	NG	CC	RTID	N	4981245	11	43
55097	Lamar Power Project	TX	33.6308	-95.59	NG	CC	RTID	N	5333833	11	43
55187	Channelview Cogeneration Plant	TX	29.836952	-95.121744	NG	CC	RTID	Y	6008305	11	43
55464	Deer Park Energy Center	TX	29.713414	-95.134508	NG	CC	RTID	Y	6184816	11	43
55230	Jack County	TX	33.101	-97.9574	NG	CC	RTID	N	6240763	11	43
55480	Forney Energy Center	TX	32.7563	-96.4916	NG	CC	RTID	N	8583702	11	43
10184	Central Utility Plant	TX	30.397351	-97.842586	NG	ST		Y	630	11	43
3477	Lone Star	TX	32.9215	-94.7226	NG	ST		N	1572.37	11	43
50127	CCI Signal Hill LLC	TX	33.8625	-98.5894	NG	CC		N	3687	11	43
3630	Pearsall	TX	28.9275	-99.0919	NG	ST		N	11417	11	43
4195	Powerlane Plant	TX	33.1707	-96.1264	NG	ST		N	16933	11	43
55311	BASF Freeport Works	TX	29.002	-95.394	NG	ST		Y	33585	11	43
3602	Ty Cooke	TX	33.5211	-101.7906	NG	ST		N	58513	11	43
3559	Silas Ray	TX	25.9131	-97.5214	NG	CC		N	75924	11	43
54321	Goodyear Beaumont Chemical Plant	TX	29.9728	-94.2142	NG	ST		Y	85648.09	11	43
10789	Sabine River Works	TX	30.0552	-93.7579	NG	CC		Y	153246	11	43
3604	J Robert Massengale	TX	33.6039	-101.8408	NG	CC		N	162406	11	43
52132	Power Station 4	TX	29.378164	-94.92195	NG	CC		Y	205839	11	43
58151	Central Utility Plant - Texas A&M	TX	30.617778	-96.343333	NG	CC		Y	219347.07	11	43
52176	C R Wing Cogen Plant	TX	32.273178	-101.422386	NG	CC		Y	219585	11	43
10418	Ascend Performance Materials Texas Inc.	TX	29.2558	-95.2103	NG	ST		Y	231976.47	11	43
52069	Point Comfort Operations	TX	28.652709	-96.559997	NG	ST		Y	270386.53	11	43
3631	Sam Rayburn	TX	28.8947	-97.135	NG	CC		N	291386	11	43
50118	Hal C Weaver Power Plant	TX	30.2867	-97.7356	NG	CC		Y	324648	11	43
10741	Clear Lake Cogeneration Ltd	TX	29.6255	-95.067	NG	CC		Y	411665	11	43
50109	Paris Energy Center	TX	33.6968	-95.5577	NG	CC		N	491723	11	43
55309	Air Products Port Arthur	TX	29.866497	-93.96515	NG	CC		Y	516811	11	43
55104	Sabine Cogen	TX	30.0444	-93.771389	NG	CC		Y	547072	11	43
50150	Union Carbide Seadrift Cogen	TX	28.5105	-96.7706	NG	CC		Y	661422.633	11	43
56233	EG178 Facility	TX	32.747058	-100.954661	NG	CC		N	889803	11	43
58005	Panda Sherman Power Station	TX	33.582573	-96.617893	NG	CC		N	1124930	11	43
50973	Motiva Enterprises Port Arthur Refinery	TX	29.888462	-93.950984	NG	CC		Y	1579423.88	11	43
56152	Freeport Energy Center	TX	28.988761	-95.395417	NG	CC		Y	1710734.69	11	43
50043	Houston Chemical Complex Battleground	TX	29.7314	-95.0839	NG	CC		Y	1855695.001	11	43
56102	Currant Creek	UT	39.82144	-111.89345	NG	CC	DC	N	2497439	11	44
3648	Gadsby	UT	40.7686	-111.9289	NG	ST	RTID	N	190758	11	44
56237	Lake Side Power Plant	UT	40.331667	-111.754167	NG	CC	RTID	N	4358737	11	44
56177	Nebo Power Station	UT	40.0614	-111.7294	NG	CC		N	358690	11	44
54844	Gordonsville Energy LP	VA	38.124688	-78.203543	NG	CC	DC	N	630944.997	11	45
52019	Doswell Energy Center	VA	37.820805	-77.446246	NG	CC	DC	N	3595643.062	11	45
3804	Possum Point	VA	38.5367	-77.2806	NG	CC	MULTI	N	3647784.015	11	45
3796	Bremo Bluff	VA	37.7089	-78.2878	NG	ST	ON	N	364164.998	11	45
3797	Chesterfield	VA	37.3822	-77.3833	NG	CC	ON	N	9136083.001	11	45
56807	Bear Garden	VA	37.695556	-78.285278	NG	CC	RTID	N	3172359.005	11	45
55439	Tenaska Virginia Generating Station	VA	37.8667	-78.3813	NG	CC	RTID	N	3701880	11	45
52148	Elkton	VA	38.3836	-78.6528	NG	ST		Y	15013	11	45
10633	Hopewell Cogeneration	VA	37.291667	-77.281111	NG	CC		Y	1017172.996	11	45
55662	Chehalis Generating Facility	WA	46.6225	-122.9131	NG	CC	DC	N	2543785	11	47
55482	Goldendale Generating Station	WA	45.8114	-120.833	NG	CC	IDHB	N	1005123	11	47
55818	Frederickson Power LP	WA	47.086111	-122.365674	NG	CC	RTID	N	698093	11	47
55700	Mint Farm Generating Station	WA	46.138824	-122.985506	NG	CC	RTID	N	1288911	11	47
7605	River Road Gen Plant	WA	45.6497	-122.7256	NG	CS	RTID	N	1577119	11	47
7999	Grays Harbor Energy Facility	WA	46.9692	-123.48	NG	CC	RTID	N	1705387	11	47
54809	University of Washington Power Plant	WA	47.6539	-122.3036	NG	ST		Y	12202.6	11	47
7870	Encogen	WA	48.746	-122.486	NG	CC		Y	219643.001	11	47
54476	Sumas Power Plant	WA	48.9905	-122.2733	NG	CC		Y	446065	11	47
54537	Ferndale Generating Station	WA	48.828813	-122.686667	NG	CC		Y	723051.996	11	47
3992	Blount Street	WI	43.0789	-89.3744	NG	ST	ON	N	1158	11	48
4040	Port Washington Generating Station	WI	43.3842	-87.8689	NG	CC	ON	N	2943386	11	48
55011	LSP-Whitewater LP	WI	42.855463	-88.72992	NG	CC	RTID	Y	705454.001	11	48
56031	Fox Energy Center	WI	44.3204	-88.208889	NG	CC	RTID	N	1579022.98	11	48
55641	Riverside Energy Center	WI	42.583056	-89.035833	NG	CC	RTID	N	1833370	11	48
55861	Stevens Point Mill	WI	44.3528	-89.5836	NG	ST		Y	12770	11	48
54408	UW Madison Charter Street Plant	WI	43.07	-89.4006	NG	ST		Y	49116.92	11	48
7991	West Campus Cogeneration Facility	WI	43.075071	-89.4251	NG	CC		Y	89377	11	48
57703	Cheyenne Prairie Generating Station	WY	41.123611	-104.72	NG	CC		N	45227	11	50
55952	#N/A	#N/A	#N/A	#N/A	NG	CC		N	199518	11	51
50498	Capital District Energy Center	CT	41.7639	-72.6925	NG/DFO	CC		Y	29561.72	12	7
599	McKee Run	DE	39.176222	-75.546628	NG/DFO	ST	RTID	N	33479	12	8
1660	Potter Station 2	MA	42.235	-70.9672	NG/DFO	CC	DC	N	34582	12	19
58160	Williams College - Campus CHP	MA	42.709722	-73.202222	NG/DFO	ST		Y	3478	12	19
54586	L'Energia Energy Center	MA	42.632124	-71.313235	NG/DFO	CC		N	98113.56	12	19
52026	Dartmouth Power Associates LP	MA	41.6731	-70.9994	NG/DFO	CC		N	139534.997	12	19
50002	Pittsfield Generating LP	MA	42.4564	-73.2181	NG/DFO	CC		Y	144036	12	19
50555	Rosemary Power Station	NC	36.4517	-77.6594	NG/DFO	CC		N	65716	12	27
54640	NAEA Lakewood LLC	NJ	40.0613	-74.1686	NG/DFO	CC		N	725865.998	12	31
52168	Riverbay	NY	40.869972	-73.824437	NG/DFO	ST		Y	49688.25	12	34
54808	New York University Central Plant	NY	40.7899	-73.9233	NG/DFO	CC		Y	95268	12	34
10190	Castleton Energy Center	NY	42.5375	-73.7433	NG/DFO	CC		N	229367.996	12	34
7314	Richard M Flynn	NY	40.8158	-73.064	NG/DFO	CC		N	1207777.006	12	34
54779	Oklahoma State University	OK	36.1261	-97.07	NG/DFO	ST		Y	49	12	36
3628	R W Miller	TX	32.6581	-98.3103	NG/DFO	ST	ON	N	131654.004	12	43
54268	March Point Cogeneration	WA	48.4708	-122.56	NG/DFO	CC		Y	1003102.88	12	47
10091	Total Energy Facilities	CA	33.7683	-118.2836	NG/OBG	CC		Y	146209.002	13	5
56041	Malburg	CA	33.9986	-118.2219	NG/OBG	CC		N	868213.998	13	5
52006	LaO Energy Systems	LA	30.3186	-91.2325	NG/OG	CC	MULTI	Y	2028484.001	14	18
2393	Gilbert	NJ	40.565833	-75.163889	NG/OG	CC	RTID	N	66657	14	31
55299	Channel Energy Center LLC	TX	29.7189	-95.2319	NG/OG	CC	RTID	Y	3047438.995	14	43
50216	Watson Cogeneration	CA	33.816647	-118.244841	NG/OG/WO	CC		Y	3067298.981	15	5
57842	Wabash Valley Power IGCC	IN	39.53	-87.4247	NG/OTHER	CC	ON	N	1285479	16	15
46	Browns Ferry	AL	34.7042	-87.1189	NUC	ST	ON	N	26738300	17	2
6001	Joseph M Farley	AL	31.2231	-85.1116	NUC	ST	RTID	N	14505389	17	2
8055	Arkansas Nuclear One	AR	35.311	-93.2351	NUC	ST	MULTI	N	14478259	17	3
6008	Palo Verde	AZ	33.3881	-112.8617	NUC	ST	RTID	N	32320917	17	4
6099	Diablo Canyon	CA	35.211536	-120.855542	NUC	ST	ON	N	16985978	17	5
566	Millstone	CT	41.3107	-72.1677	NUC	ST	ON	N	15840619	17	7
6045	St Lucie	FL	27.348611	-80.246389	NUC	ST	ON	N	15817574	17	9
6051	Edwin I Hatch	GA	31.9342	-82.3447	NUC	ST	RTID	N	14509992	17	10
649	Vogtle	GA	33.1427	-81.7625	NUC	ST	RTND	N	18060190	17	10
1060	Duane Arnold Energy Center	IA	42.1011	-91.7781	NUC	ST	MULTI	N	4152468	17	12
869	Dresden Generating Station	IL	41.39	-88.27	NUC	ST	OC	N	15128940	17	14
880	Quad Cities Generating Station	IL	41.726111	-90.310278	NUC	ST	ON	N	15386504	17	14
204	Clinton Power Station	IL	40.1719	-88.8339	NUC	ST	RC	N	9071711	17	14
6026	LaSalle Generating Station	IL	41.245498	-88.669066	NUC	ST	RC	N	18754699	17	14
6022	Braidwood Generation Station	IL	41.2435	-88.2286	NUC	ST	RC	N	20263665	17	14
6023	Byron Generating Station	IL	42.0742	-89.2819	NUC	ST	RTND	N	19252381	17	14
210	Wolf Creek Generating Station	KS	38.23926	-95.68978	NUC	ST	RC	N	8558384	17	16
4270	Waterford 3	LA	29.995267	-90.471581	NUC	ST	ON	N	9156336	17	18
6462	River Bend	LA	30.757	-91.3327	NUC	ST	RTID	N	8154994	17	18
1590	Pilgrim Nuclear Power Station	MA	41.9438	-70.578	NUC	ST	ON	N	5769154	17	19
6011	Calvert Cliffs Nuclear Power Plant	MD	38.4344	-76.4417	NUC	ST	ON	N	14343334	17	20
6000	Donald C Cook	MI	41.975604	-86.565206	NUC	ST	ON	N	17630792	17	22
1715	Palisades	MI	42.323	-86.3146	NUC	ST	RTID	N	5822926	17	22
1729	Fermi	MI	41.9631	-83.2581	NUC	ST	RTND	N	7792130	17	22
1922	Monticello Nuclear Facility	MN	45.3338	-93.8493	NUC	ST	ON	N	4323966	17	23
1925	Prairie Island	MN	44.622	-92.6333	NUC	ST	ON	N	8383200	17	23
6153	Callaway	MO	38.758919	-91.778841	NUC	ST	RTND	N	9276356	17	24
6072	Grand Gulf	MS	32.0081	-91.0478	NUC	ST	RTND	N	10252183	17	25
6014	Brunswick Nuclear	NC	33.9597	-78.0114	NUC	ST	ON	N	15332240	17	27
6038	McGuire	NC	35.4331	-80.9486	NUC	ST	ON	N	17586205	17	27
6015	Harris	NC	35.6334	-78.9556	NUC	ST	RTND	N	8048575	17	27
2289	Fort Calhoun	NE	41.520522	-96.077511	NUC	ST	ON	N	4184503	17	29
8036	Cooper Nuclear Station	NE	40.3628	-95.6408	NUC	ST	ON	N	5917335	17	29
6115	Seabrook	NH	42.899167	-70.848889	NUC	ST	ON	N	10168265	17	30
2388	Oyster Creek	NJ	39.8143	-74.2062	NUC	ST	ON	N	4850907	17	31
2410	PSEG Salem Generating Station	NJ	39.4625	-75.5358	NUC	ST	ON	N	16282398	17	31
6118	PSEG Hope Creek Generating Station	NJ	39.4666	-75.5377	NUC	ST	RTND	N	10373816	17	31
2589	Nine Mile Point Nuclear Station	NY	43.5211	-76.41	NUC	ST	MULTI	N	15239180	17	34
6122	R E Ginna Nuclear Power Plant	NY	43.2777	-77.3099	NUC	ST	ON	N	4662495	17	34
6110	James A Fitzpatrick	NY	43.52139	-76.408394	NUC	ST	ON	N	5828694	17	34
2497	Indian Point 2	NY	41.270556	-73.9527	NUC	ST	ON	N	8330556	17	34
8907	Indian Point 3	NY	41.2706	-73.9526	NUC	ST	ON	N	8977699	17	34
6149	Davis Besse	OH	41.5967	-83.0861	NUC	ST	RTND	N	5829169	17	35
6020	Perry	OH	41.8006	-81.1439	NUC	ST	RTND	N	10455271	17	35
3166	Peach Bottom	PA	39.758936	-76.268742	NUC	ST	ON	N	18771169	17	38
8011	Three Mile Island	PA	40.1515	-76.7232	NUC	ST	RTND	N	7327645	17	38
6040	Beaver Valley	PA	40.6219	-80.4336	NUC	ST	RTND	N	14757306	17	38
6103	PPL Susquehanna	PA	41.0919	-76.1462	NUC	ST	RTND	N	18781295	17	38
6105	Limerick	PA	40.224303	-75.58744	NUC	ST	RTND	N	19077244	17	38
3265	Oconee	SC	34.7939	-82.8986	NUC	ST	ON	N	21193381	17	40
3251	H B Robinson	SC	34.4017	-80.1589	NUC	ST	RC	N	5597462	17	40
6127	V C Summer	SC	34.2983	-81.3153	NUC	ST	RC	N	6916201	17	40
6036	Catawba	SC	35.0514	-81.0694	NUC	ST	RTID	N	18711509	17	40
6152	Sequoyah	TN	35.2267	-85.0917	NUC	ST	ON	N	18892391	17	42
7722	Watts Bar Nuclear Plant	TN	35.6021	-84.7895	NUC	ST	RTND	N	8777615	17	42
6145	Comanche Peak	TX	32.298365	-97.785515	NUC	ST	ON	N	18635776	17	43
6251	South Texas Project	TX	28.795	-96.0481	NUC	ST	RC	N	20651667	17	43
3806	Surry	VA	37.1661	-76.6986	NUC	ST	ON	N	14332325	17	45
6168	North Anna	VA	38.06	-77.7897	NUC	ST	ON	N	15888652	17	45
3751	Vermont Yankee	VT	42.7786	-72.5133	NUC	ST	ON	N	5060582	17	46
371	Columbia Generating Station	WA	46.4711	-119.3339	NUC	ST	RTID	N	9497321	17	47
4046	Point Beach Nuclear Plant	WI	44.2806	-87.5369	NUC	ST	ON	N	9447096	17	48
6288	Healy	AK	63.8542	-148.95	OT	ST		N	185905	18	1
10216	Alabama River Pulp	AL	31.5825	-87.4889	OT	ST		Y	11305	18	2
56076	ABC Coke	AL	33.582793	-86.779866	OT	ST		Y	13707	18	2
50359	Sloss Industries Corp	AL	33.568164	-86.79873	OT	ST		Y	29687.82	18	2
57467	Westervelt Moundville Cogen	AL	32.960714	-87.655419	OT	ST		Y	31795	18	2
50245	International Paper Courtland Mill	AL	34.735	-87.3108	OT	ST		Y	35425.535	18	2
54429	Alabama Pine Pulp	AL	31.5825	-87.4889	OT	ST		Y	75571	18	2
54216	U S Alliance Coosa Pines	AL	33.328107	-86.356825	OT	ST		Y	115281	18	2
55044	Boise Cascade Pulp & Paper Mill	AL	31.4894	-87.8989	OT	ST		Y	123427.36	18	2
54763	Rock-Tenn Mill	AL	32.4541	-87.9759	OT	ST		Y	153489.999	18	2
50730	Fairfield Works	AL	33.4885	-86.9212	OT	ST		N	186610.01	18	2
10699	Georgia-Pacific Consr Prods LP-Naheola	AL	32.2268	-88.0252	OT	ST		Y	251787.003	18	2
54789	Georgia-Pacific Brewton Mill	AL	31.077	-87.1116	OT	ST		Y	261135.996	18	2
50407	Mobile Energy Services LLC	AL	30.736487	-88.051643	OT	ST		Y	288525.003	18	2
54752	Weyerhaeuser Pine Hill Operations	AL	31.9698	-87.4806	OT	ST		Y	461168.001	18	2
52140	International Paper Prattville Mill	AL	32.4187	-86.4718	OT	ST		Y	544777.993	18	2
54802	Mead Coated Board	AL	32.1761	-85.0272	OT	ST		Y	637812.16	18	2
54104	Ashdown	AR	33.6417	-94.1083	OT	ST	ON	Y	719065.999	18	3
56182	Columbia Flooring Melbourne	AR	36.060514	-91.919802	OT	ST		Y	6808	18	3
56079	Riceland Foods Cogeneration Plant	AR	34.5136	-91.5331	OT	ST		Y	30960	18	3
50638	Clearwater Paper APP CB	AR	33.7061	-91.2371	OT	ST		Y	119227	18	3
10627	Pine Bluff Mill	AR	34.221213	-91.907365	OT	ST		Y	424054	18	3
10606	Georgia-Pacific Crossett	AR	33.1421	-91.975	OT	ST		Y	494285.609	18	3
56616	Novo BioPower Plant	AZ	34.503158	-110.334953	OT	ST		N	170105.997	18	4
404	Scattergood	CA	33.918151	-118.427648	OT	ST	ON	N	1133912.01	18	5
52064	Dominguez Plant	CA	33.8431	-118.2347	OT	ST		Y	228	18	5
52063	Martinez Sulfuric Acid Regeneration Plt	CA	38.0314	-122.1139	OT	ST		Y	810	18	5
50068	Sierra Power	CA	35.9542	-119.0461	OT	ST		Y	1807	18	5
10438	SEGS II	CA	34.8659	-116.8251	OT	ST		N	9191	18	5
10437	SEGS I	CA	34.8621	-116.8281	OT	ST		N	11040	18	5
58216	J.R. Simplot Company	CA	37.806944	-121.2775	OT	ST		N	15940	18	5
57857	Shasta Renewable Resources Plant	CA	40.470833	-122.331111	OT	ST		Y	21995	18	5
10661	Collins Pine Project	CA	40.303422	-121.244431	OT	ST		Y	22654	18	5
56284	Santa Maria EPG	CA	35.040833	-120.636667	OT	ST		N	25329	18	5
55049	Sierra Pacific Anderson Facility	CA	40.4731	-122.3206	OT	ST		Y	28736.25	18	5
10471	Spadra Landfill Gas to Energy	CA	34.0408	-117.8217	OT	ST		N	31150	18	5
10395	GRS Coyote Canyon	CA	33.613	-117.8219	OT	ST		N	34035	18	5
54517	Sierra Pacific Sonora	CA	37.966389	-120.317777	OT	ST		Y	38490.57	18	5
58251	C&H Sugar Plant	CA	38.057222	-122.218889	OT	ST		Y	42002.94	18	5
54015	MM West Covina	CA	34.033206	-117.906129	OT	ST		N	43055	18	5
56469	Roseburg Forest Products Biomass	CA	41.435556	-122.376944	OT	ST		Y	52280	18	5
10443	SEGS VII	CA	35.014836	-117.565903	OT	ST		N	52488	18	5
10442	SEGS VI	CA	35.020981	-117.566079	OT	ST		N	55827	18	5
10440	SEGS IV	CA	35.012166	-117.555672	OT	ST		N	58369	18	5
10439	SEGS III	CA	35.00694	-117.555768	OT	ST		N	58830	18	5
10441	SEGS V	CA	35.01948	-117.55553	OT	ST		N	60197	18	5
10764	Blue Lake Power LLC	CA	40.8786	-123.9942	OT	ST		N	66791	18	5
56707	El Nido Facility	CA	37.1867	-120.4903	OT	ST		N	67541	18	5
50624	ExxonMobil Oil Torrance Refinery	CA	33.85336	-118.33	OT	ST		Y	68496	18	5
56706	Ampersand Chowchilla Biomass LLC	CA	37.106668	-120.248504	OT	ST		N	71848	18	5
10768	Rio Bravo Jasmin	CA	35.7415	-119.0512	OT	ST		Y	72584	18	5
10090	Commerce Refuse To Energy	CA	33.9949	-118.1538	OT	ST		N	72854	18	5
50388	Phillips 66 Carbon Plant	CA	38.018056	-122.2344	OT	ST		Y	91160	18	5
50049	Eel River Power	CA	40.4728	-124.1014	OT	ST		Y	96646	18	5
58472	Buena Vista Biomass Power	CA	38.277778	-120.913611	OT	ST		N	106968.004	18	5
50110	Sierra Pacific Burney Facility	CA	40.8767	-121.7016	OT	ST		Y	112579	18	5
10144	Sierra Pacific Lincoln Facility	CA	38.9032	-121.3097	OT	ST		Y	112715	18	5
50530	Equilon Los Angeles Refining	CA	33.791667	-118.234722	OT	ST		Y	113924.56	18	5
10769	Rio Bravo Poso	CA	35.547452	-119.07536	OT	ST		Y	115714.251	18	5
10502	Thermal Energy Development Part LP	CA	37.719939	-121.48867	OT	ST		N	119365	18	5
10052	Fairhaven Power	CA	40.7995	-124.2028	OT	ST		N	123768.005	18	5
50560	Pacific-Ultrapower Chinese Station	CA	37.874056	-120.477556	OT	ST		N	134777.002	18	5
50632	Covanta Stanislaus Energy	CA	37.3853	-121.141	OT	ST		N	154112	18	5
10444	SEGS VIII	CA	35.0308	-117.3563	OT	ST		N	159038	18	5
10446	SEGS IX	CA	35.033	-117.338	OT	ST		N	159803	18	5
50293	Wadham Energy LP	CA	39.1062	-122.1096	OT	ST		N	170417.997	18	5
50112	Sierra Pacific Quincy Facility	CA	39.941165	-120.909211	OT	ST		Y	175011.8	18	5
10837	Covanta Mendota	CA	36.755896	-120.365422	OT	ST		N	179347.001	18	5
10836	Woodland Biomass Power Ltd	CA	38.6905	-121.7371	OT	ST		N	183432.005	18	5
10777	HL Power	CA	40.368338	-120.264848	OT	ST		N	187290.001	18	5
10772	Rio Bravo Rocklin	CA	38.8319	-121.313652	OT	ST		N	189810.005	18	5
10767	Rio Bravo Fresno	CA	36.688915	-119.723218	OT	ST		N	193070.003	18	5
55557	Wilmington Hydrogen Plant	CA	33.7803	-118.24	OT	ST		Y	203584.57	18	5
10601	Tesoro Wilmington Calciner	CA	33.77697	-118.22821	OT	ST		Y	214262	18	5
10652	Burney Forest Products	CA	40.879719	-121.720342	OT	ST		Y	214792.996	18	5
50837	Southeast Resource Recovery	CA	33.759236	-118.239922	OT	ST		Y	220061.002	18	5
54626	Mt Poso Cogeneration	CA	35.576323	-119.006245	OT	ST		Y	257523.005	18	5
54238	Stockton Biomass	CA	37.943633	-121.330433	OT	ST		Y	281497.999	18	5
10840	Covanta Delano Energy	CA	35.7144	-119.2337	OT	ST		N	301036	18	5
10684	Argus Cogen Plant	CA	35.765	-117.3833	OT	ST		Y	316298.021	18	5
10300	Desert View Power	CA	33.586	-116.0873	OT	ST		N	327982.003	18	5
10472	Puente Hills Energy Recovery	CA	34.0233	-118.0241	OT	ST		N	356834	18	5
50881	Wheelabrator Shasta	CA	40.428329	-122.279248	OT	ST		N	384285	18	5
50205	Williams Ignacio Natural Gas Plant	CO	37.145556	-107.784722	OT	ST		N	42386	18	6
58574	Eagle Valley Clean Energy LLC Biomass	CO	39.648056	-106.943056	OT	ST		N	43673	18	6
562	Middletown	CT	41.554944	-72.579075	OT	ST	MULTI	N	234537.005	18	7
546	Montville Station	CT	41.4281	-72.1019	OT	ST	ON	N	48631	18	7
6156	New Haven Harbor	CT	41.283997	-72.904323	OT	ST	ON	N	233791.999	18	7
50664	Covanta Wallingford Energy	CT	41.440497	-72.835134	OT	ST		N	39284	18	7
56847	Plainfield Renewable Energy LLC	CT	41.664376	-71.92418	OT	ST		N	94420	18	7
50648	Covanta Bristol Energy	CT	41.6492	-72.9153	OT	ST		N	103414	18	7
54758	Wheelabrator Lisbon	CT	41.584429	-72.041629	OT	ST		N	109387	18	7
10646	Covanta Southeastern Connecticut Company	CT	41.475	-72.0688	OT	ST		N	129798	18	7
54945	CT Resource Rec Authority Facility	CT	41.750521	-72.652982	OT	ST		N	375431.997	18	7
50883	Wheelabrator Bridgeport	CT	41.1625	-73.2083	OT	ST		N	480850	18	7
52193	Delaware City Plant	DE	39.5871	-75.6343	OT	ST	ON	Y	338781	18	8
667	Northside Generating Station	FL	30.4172	-81.5525	OT	ST	ON	N	3708484.914	18	9
10333	Florida Power Development	FL	28.5819	-82.4311	OT	ST	RC	N	107595.997	18	9
54627	Okeelanta Cogeneration	FL	26.5769	-80.7469	OT	ST	RTID	Y	241017.003	18	9
57241	Gainesville Renewable Energy Center	FL	29.7675	-82.396388	OT	ST	RTID	N	578212.004	18	9
10202	Fernandina Beach Mill	FL	30.681823	-81.455413	OT	ST	RTID	Y	624545.002	18	9
50473	Suwannee River Chemical Complex	FL	30.4447	-82.7842	OT	ST		Y	23443	18	9
10416	Pensacola Florida Plant	FL	30.5958	-87.2525	OT	ST		Y	37039	18	9
10250	Bay County Waste to Energy	FL	30.266057	-85.52067	OT	ST		N	40177	18	9
50474	Swift Creek Chemical Complex	FL	30.4522	-82.8644	OT	ST		Y	70463	18	9
50629	Covanta Lake County Energy	FL	28.740206	-81.889188	OT	ST		N	71110	18	9
50774	Telogia Power	FL	30.3349	-84.8182	OT	ST		N	98652	18	9
50875	McKay Bay Facility	FL	27.949528	-82.421182	OT	ST		N	140853	18	9
50666	Pasco Cnty Solid Waste Resource Recovery	FL	28.3681	-82.5583	OT	ST		N	171503	18	9
54033	Wheelabrator North Broward	FL	26.2878	-80.1581	OT	ST		N	173951	18	9
54529	Wheelabrator Ridge Energy	FL	28.0274	-81.8475	OT	ST		N	195617.997	18	9
50371	"The Mosaic Company, Plant City Facility"	FL	28.1663	-82.1388	OT	ST		Y	207420.92	18	9
10204	Mosaic Co Tampa Facility	FL	27.8605	-82.3903	OT	ST		Y	225654.09	18	9
50482	Clewiston Sugar House	FL	26.7351	-80.9377	OT	ST		Y	226630.005	18	9
50807	Stone Container Panama City Mill	FL	30.141984	-85.621103	OT	ST		Y	236607.092	18	9
10004	Mosaic South Pierce Operations	FL	27.76522	-81.938787	OT	ST		Y	238284	18	9
10562	Rayonier Fernandina Mill	FL	30.6612	-81.473	OT	ST		Y	261615.992	18	9
50858	Hillsborough County Resource Recovery	FL	27.954901	-82.340469	OT	ST		N	282840	18	9
50466	Buckeye Florida LP	FL	30.0688	-83.5253	OT	ST		Y	316365.074	18	9
50887	Wheelabrator South Broward	FL	26.0687	-80.1986	OT	ST		N	322301.01	18	9
50633	Mosaic Co Bartow Facility	FL	27.908	-81.9185	OT	ST		Y	326750.56	18	9
52010	Lee County Solid Waste Energy	FL	26.631549	-81.760656	OT	ST		N	328150.001	18	9
10062	Miami Dade County Resource Recovery Fac	FL	25.8356	-80.3566	OT	ST		N	346190.001	18	9
50071	Palm Beach Renewable Energy Facility#1	FL	26.771389	-80.141944	OT	ST		N	350200.006	18	9
50884	Pinellas County Resource Recovery	FL	27.8733	-82.6741	OT	ST		N	355099	18	9
10611	Georgia-Pacific Palatka Operations	FL	29.6807	-81.6809	OT	ST		Y	387134.997	18	9
50250	International Paper Pensacola	FL	30.5966	-87.3264	OT	ST		Y	404026.776	18	9
10434	Mosaic New Wales Operations	FL	27.833642	-82.051937	OT	ST		Y	522590.16	18	9
715	McManus	GA	31.213645	-81.546165	OT	ST	ON	N	2935	18	10
54101	Georgia-Pacific Cedar Springs	GA	31.166	-85.0951	OT	ST	ON	Y	584599.996	18	10
50398	International Paper Savanna Mill	GA	32.100354	-81.124248	OT	ST	RTID	Y	668878.001	18	10
10120	PInova Inc	GA	31.164772	-81.478724	OT	ST		Y	14375.4	18	10
50201	Rabun Gap Cogen Facility	GA	34.9536	-83.3786	OT	ST		N	102432	18	10
54281	Interstate Paper LLC Riceboro	GA	31.741629	-81.407856	OT	ST		Y	106715	18	10
54004	Dublin Mill	GA	32.5036	-82.8443	OT	ST		Y	125456.935	18	10
50465	Flint River Operations	GA	32.2544	-84.0667	OT	ST		Y	212878.998	18	10
10361	Savannah River Mill	GA	32.331274	-81.201496	OT	ST		Y	243892.192	18	10
50804	Port Wentworth Mill	GA	32.1561	-81.1586	OT	ST		Y	286128.115	18	10
10560	Rayonier Advanced Materials - Jesup Plant	GA	31.6593	-81.8439	OT	ST		N	372638.601	18	10
57909	Piedmont Green Power	GA	33.045278	-84.125556	OT	ST		N	380645	18	10
54358	International Paper Augusta Mill	GA	33.328259	-81.953078	OT	ST		Y	408454	18	10
10605	Brunswick Cellulose	GA	31.175406	-81.521637	OT	ST		Y	427059.004	18	10
10426	Inland Paperboard Packaging Rome	GA	34.2528	-85.3275	OT	ST		Y	435948.351	18	10
54464	Riverwood International Macon Mill	GA	32.7714	-83.6281	OT	ST		Y	511568.341	18	10
764	Honolulu	HI	21.3068	-157.8819	OT	ST	ON	N	1594	18	11
766	Waiau	HI	21.388997	-157.961518	OT	ST	ON	N	1031646	18	11
765	Kahe	HI	21.356395	-158.128853	OT	ST	ON	N	2643695	18	11
7130	Puna	HI	19.6316	-155.0313	OT	ST		N	43042	18	11
6056	Kahului	HI	20.896884	-156.462696	OT	ST		N	126421	18	11
10604	Hawaiian Comm & Sugar Puunene Mill	HI	20.867453	-156.453958	OT	ST		Y	151391.509	18	11
772	W H Hill	HI	19.7041	-155.0607	OT	ST		N	170674	18	11
10334	H Power	HI	21.300036	-158.098615	OT	ST		N	382606.995	18	11
1122	Ames Electric Services Power Plant	IA	42.0258	-93.6089	OT	ST	RTID	N	283170.002	18	12
10860	Archer Daniels Midland Clinton	IA	41.8206	-90.2097	OT	ST	RTID	Y	838855.003	18	12
50088	University of Northern Iowa	IA	42.513608	-92.459122	OT	ST		Y	13413	18	12
54775	University of Iowa Main Power Plant	IA	41.6572	-91.54	OT	ST		Y	65504.947	18	12
50637	Clearwater Paper IPP Lewiston	ID	46.423056	-116.976389	OT	ST	RTID	Y	379869.002	18	13
50099	Tamarack Energy Partnership	ID	44.954853	-116.387134	OT	ST		Y	28818	18	13
55090	Plummer Cogen	ID	47.331006	-116.890352	OT	ST		Y	30311	18	13
50274	Simplot Leasing Don Plant	ID	42.908412	-112.52944	OT	ST		Y	74878	18	13
50627	ExxonMobil Oil Joliet Refinery	IL	41.4167	-88.1833	OT	ST		Y	31979.95	18	14
57072	Granite City Works	IL	38.6972	-90.1283	OT	ST		Y	473562	18	14
10397	ArcelorMittal Indiana Harbor West	IN	41.663765	-87.452325	OT	ST	MULTI	Y	339013.057	18	15
10245	ArcelorMittal Burns Harbor	IN	41.635	-87.1387	OT	ST	ON	Y	542940.002	18	15
50733	Gary Works	IN	41.622426	-87.328936	OT	ST	ON	Y	796288.995	18	15
50647	Covanta Indianapolis Energy	IN	39.734456	-86.189075	OT	ST		Y	39716.65	18	15
55066	Heat Recovery Coke Facility	IN	41.6789	-87.42	OT	ST		N	342381	18	15
52130	Whiting Refinery	IN	41.6703	-87.4803	OT	ST		Y	374811	18	15
54995	Indiana Harbor E 5 AC Station	IN	41.6844	-87.4214	OT	ST		Y	417610.002	18	15
59383	"East Kansas Agri-Energy, LLC"	KS	38.2725	-95.240278	OT	ST		N	0.97	18	16
6823	D B Wilson	KY	37.4497	-87.0806	OT	ST	RTID	N	2995417.995	18	17
6639	R D Green	KY	37.6461	-87.5	OT	ST	RTID	N	3462743.954	18	17
54850	Cox Waste to Energy	KY	37.3208	-85.3611	OT	ST		Y	8063.61	18	17
55429	Kentucky Mills	KY	37.8948	-86.6854	OT	ST		Y	371239.002	18	17
6190	Brame Energy Center	LA	31.395	-92.716667	OT	ST	OC	N	6534197.92	18	18
1391	Louisiana 1	LA	30.4922	-91.1864	OT	ST	ON	Y	842856.01	18	18
54091	Mansfield Mill	LA	32.1575	-93.5562	OT	ST	RTID	Y	602179.992	18	18
1393	R S Nelson	LA	30.2844	-93.2911	OT	ST	RTID	Y	5023290.948	18	18
51008	Enterprise Sugar Factory	LA	29.903611	-91.725556	OT	ST		Y	1100	18	18
54677	CII Carbon LLC	LA	29.9327	-89.9782	OT	ST		Y	19143	18	18
50487	PPG Powerhouse A	LA	30.2242	-93.2831	OT	ST		N	29422	18	18
57938	ADA Carbon Solutions Red River	LA	32.003889	-93.391111	OT	ST		Y	42434.59	18	18
10593	Agrilectric Power Partners Ltd	LA	30.2012	-93.1269	OT	ST		N	85506	18	18
10198	Mosaic Phosphates Uncle Sam	LA	30.038649	-90.828312	OT	ST		Y	85614.14	18	18
10697	St Francisville Mill	LA	30.7108	-91.3236	OT	ST		Y	94743.198	18	18
58310	Lake Charles Plant	LA	30.148889	-93.335556	OT	ST		Y	151821	18	18
50488	PPG Riverside	LA	30.2242	-93.2831	OT	ST		N	220727	18	18
50028	Plant 31 Paper Mill	LA	32.486787	-92.149597	OT	ST		Y	266558.997	18	18
